country;state;Name;Pop.;latitude;longitude
CHN;ALL;Shanghai;15584627;31.23;121.47
IND;ALL;Bombay;13662885;18.96;72.82
PAK;ALL;Karāchi;12461423;24.86;67.01
ARG;ALL;Buenos Aires;12127814;-34.61;-58.37
IND;ALL;Delhi;11954217;28.67;77.21
TUR;ALL;İstanbul;11262323;41.1;29
PHL;ALL;Manila;10993374;14.62;120.97
RUS;ALL;Moscow;10477173;55.75;37.62
BRA;ALL;São Paulo;10287833;-23.53;-46.63
BGD;ALL;Dhāka;10083974;23.7;90.39
KOR;ALL;Sŏul;9763341;37.56;126.99
NGA;ALL;Lagos;9494045;6.5;3.35
COD;ALL;Kinshasa;9166685;-4.31;15.32
MEX;MEX-DF;Mexico City;8609347;19.43;-99.14
IDN;ALL;Jakarta;8576788;-6.18;106.83
IRN;ALL;Tehrān;8070230;35.67;51.43
USA;NY;New York city;8008278;40.704234;-73.917927
EGY;ALL;Cairo;7947121;30.06;31.25
PER;ALL;Lima;7804611;-12.07;-77.05
CHN;ALL;Peking;7712104;39.93;116.4
GBR;ENG;London;7622399;51.52;-0.1
COL;ALL;Bogotá;7137849;4.63;-74.09
PAK;ALL;Lahore;6747238;31.56;74.35
BRA;ALL;Rio de Janeiro;6193265;-22.91;-43.2
THA;ALL;Bangkok;5768014;13.73;100.5
IRQ;ALL;Bagdād;5258383;33.33;44.44
IND;ALL;Bangalore;5180533;12.97;77.56
CHL;ALL;Santiago;5090824;-33.46;-70.64
IND;ALL;Calcutta;5021458;22.57;88.36
SGP;ALL;Singapore;4974232;1.3;103.85
CAN;ON;Toronto;4901959;43.65;-79.38
MMR;ALL;Rangoon;4886305;16.79;96.15
NGA;ALL;Ibadan;4826891;7.38;3.93
SAU;ALL;Riyadh;4606888;24.65;46.77
IND;ALL;Madras;4562843;13.09;80.27
RUS;ALL;Saint Petersburg;4543942;59.93;30.32
CHN;ALL;Chongqing;4406788;29.57;106.58
VNM;ALL;Ho Chi Minh City;4331288;10.78;106.69
CHN;ALL;Xian;4305536;34.27;108.9
CHN;ALL;Wuhan;4262236;30.58;114.27
EGY;ALL;Alexandria;4247414;31.22;29.95
IND;ALL;Hyderabad;3980938;17.4;78.48
CHN;ALL;Chengdu;3915259;30.67;104.07
CIV;ALL;Abidjan;3900546;5.33;-4.03
TUR;ALL;Ankara;3878370;39.93;32.85
IND;ALL;Ahmadābād;3867336;23.03;72.58
USA;CA;Los Angeles city;3694820;34.086159;-118.375984
CHN;ALL;Tianjin;3682177;39.13;117.2
BGD;ALL;Chāţţagām;3654939;22.33;91.81
AUS;ALL;Sydney;3654459;-33.87;151.21
AUS;ALL;Melbourne;3619087;-37.81;144.96
CHN;ALL;Shenyang;3526546;41.8;123.45
ZAF;ALL;Cape Town;3481156;-33.93;18.46
DEU;ALL;Berlin;3411991;52.52;13.38
KOR;ALL;Pusan;3402335;35.11;129.03
CAN;QC;Montreal;3374547;45.52;-73.57
CHN;ALL;Harbin;3320456;45.75;126.65
ZAF;ALL;Durban;3306631;-29.87;30.99
EGY;ALL;Gizeh;3258540;30.01;31.21
CHN;ALL;Nanjing;3252038;32.05;118.78
MAR;ALL;Casablanca;3239585;33.6;-7.62
IND;ALL;Pune;3230322;18.53;73.84
ETH;ALL;Āddīs Ābebā;3144918;9.03;38.74
PRK;ALL;Pyŏngyang;3128617;39.02;125.75
IND;ALL;Sūrat;3124249;21.2;72.82
ESP;ALL;Madrid;3108461;40.42;-3.71
CHN;ALL;Guangzhou;3108254;23.12;113.25
SAU;ALL;Jiddah;3088558;21.5;39.17
IND;ALL;Kānpur;3067663;26.47;80.33
KEN;ALL;Nairobi;3038553;-1.29;36.82
IND;ALL;Jaipur;2997114;26.92;75.8
TZA;ALL;Dar es Salaam;2975986;-6.82;39.28
BRA;ALL;Salvador;2899965;-12.97;-38.5
USA;IL;Chicago city;2896016;41.840675;-87.679365
CHN;ALL;Taiyuan;2763174;37.87;112.55
IRQ;ALL;al-Mawşil;2721096;36.34;43.14
PAK;ALL;Faisalābād;2708944;31.41;73.11
CHN;ALL;Changchun;2688669;43.87;125.35
TUR;ALL;İzmir;2686134;38.43;27.15
IND;ALL;Lakhnau;2621063;26.85;80.92
UKR;ALL;Kiev;2546026;50.43;30.52
AGO;ALL;Luanda;2524459;-8.82;13.24
KOR;ALL;Inchŏn;2518466;37.48;126.64
ITA;ALL;Roma;2512523;41.89;12.5
SEN;ALL;Dakar;2485851;14.72;-17.48
BRA;ALL;Belo Horizonte;2480490;-19.92;-43.94
BRA;ALL;Fortaleza;2468165;-3.78;-38.59
IRN;ALL;Mashhad;2464741;36.27;59.57
VEN;ALL;Maracaibo;2447096;10.73;-71.66
AFG;ALL;Kabul;2436111;34.53;69.17
DOM;ALL;Santo Domingo;2429851;18.48;-69.91
KOR;ALL;Taegu;2428363;35.87;128.6
BRA;ALL;Brasília;2406478;-15.78;-47.91
SDN;ALL;Umm Durmān;2395159;15.65;32.48
IND;ALL;Nāgpur;2359331;21.16;79.08
IDN;ALL;Surabaya;2347755;-7.24;112.74
NGA;ALL;Kano;2330412;12;8.52
COL;ALL;Medellín;2283386;6.29;-75.54
GHA;ALL;Accra;2280216;5.56;-0.2
NGA;ALL;Benin;2238589;6.34;5.62
CHN;ALL;Shijiazhuang;2227048;38.05;114.48
ECU;ALL;Guayaquil;2213030;-2.21;-79.9
CHN;ALL;Changsha;2211209;28.2;112.97
SDN;ALL;Khartoum;2203987;15.58;32.52
FRA;ALL;Paris;2177528;48.86;2.34
COL;ALL;Cali;2167528;3.44;-76.52
DZA;ALL;Algiers;2159051;36.77;3.04
CHN;ALL;Jinan;2154274;36.67;117
CUB;ALL;Havanna;2144040;23.13;-82.39
UZB;ALL;Tashkent;2140486;41.31;69.3
CHN;ALL;Dalian;2121203;38.92;121.65
CHN;ALL;Jilin;2074483;43.85;126.55
CHN;ALL;Nanchang;2029581;28.68;115.88
CHN;ALL;Zhengzhou;2007037;34.75;113.67
CAN;BC;Vancouver;1998979;49.28;-123.13
ZAF;ALL;Johannesburg;1987941;-26.19;28.04
LBN;ALL;Bayrūt;1987173;33.89;35.5
CMR;ALL;Douala;1978650;4.06;9.71
CHN;ALL;Jiulong;1953830;22.32;114.17
USA;TX;Houston city;1953631;29.762895;-95.383173
VEN;ALL;Caracas;1949630;10.54;-66.93
NGA;ALL;Kaduna;1926356;10.52;7.44
ROU;ALL;Bucureşti;1921279;44.44;26.1
MEX;MEX-EMEX;Ecatepec;1916389;19.6;-99.05
NGA;ALL;Port Harcourt;1899372;4.81;7.01
CHN;ALL;Hangzhou;1896010;30.25;120.17
PAK;ALL;Rāwalpindi;1877580;33.6;73.04
GIN;ALL;Conakry;1857153;9.55;-13.67
BRA;ALL;Curitiba;1837036;-25.42;-49.29
IRQ;ALL;al-Başrah;1827125;30.53;47.82
AUS;ALL;Brisbane;1823939;-27.46;153.02
CHN;ALL;Xinyang;1783718;32.13;114.07
IDN;ALL;Medan;1768554;3.59;98.67
IND;ALL;Indore;1768303;22.72;75.86
BRA;ALL;Manaus;1766820;-3.12;-60.02
GHA;ALL;Kumasi;1765712;6.69;-1.63
DEU;ALL;Hamburg;1764163;53.55;10
MAR;ALL;Rabat;1754425;34.02;-6.84
BLR;ALL;Minsk;1753547;53.91;27.55
IND;ALL;Patna;1753543;25.62;85.13
VEN;ALL;Valencia;1725679;10.23;-67.98
IND;ALL;Bhopāl;1712355;23.24;77.4
ZAF;ALL;Soweto;1708553;-26.28;27.84
POL;ALL;Warszawa;1705941;52.26;21.02
CHN;ALL;Qingdao;1691101;36.07;120.32
AUT;ALL;Wien;1676942;48.22;16.37
CMR;ALL;Yaoundé;1676588;3.87;11.52
ARE;ALL;Dubai;1674527;25.27;55.33
IND;ALL;Thāna;1673465;19.2;72.97
SYR;ALL;Aleppo;1671673;36.23;37.17
IDN;ALL;Bekasi;1671375;-6.22;106.97
HUN;ALL;Budapest;1666892;47.51;19.08
MLI;ALL;Bamako;1662786;12.65;-7.99
IND;ALL;Ludhiāna;1662325;30.91;75.84
ZWE;ALL;Harare;1661675;-17.82;31.05
IRN;ALL;Eşfahān;1641128;32.68;51.68
ZAF;ALL;Pretoria;1633569;-25.73;28.22
ESP;ALL;Barcelona;1629211;41.4;2.17
COD;ALL;Lubumbashi;1628319;-11.66;27.48
IDN;ALL;Bandung;1627023;-6.91;107.6
MEX;MEX-JAL;Guadalajara;1616581;20.67;-103.35
CHN;ALL;Tangshan;1609184;39.62;118.19
SOM;ALL;Muqdisho;1609050;2.05;45.33
SYR;ALL;Damascus;1603368;33.5;36.32
ECU;ALL;Quito;1594883;-0.19;-78.5
IND;ALL;Āgra;1590073;27.19;78.01
CHN;ALL;Urumqi;1572939;43.8;87.58
PHL;ALL;Davao;1556270;7.11;125.63
BOL;ALL;Santa Cruz;1545161;-17.77;-63.21
MDG;ALL;Antananarivo;1540798;-18.89;47.51
MEX;MEX-CHIH;Juárez;1537485;31.74;-106.49
MEX;MEX-BC;Tijuana;1534259;32.53;-117.02
BRA;ALL;Recife;1530404;-8.08;-34.92
PAK;ALL;Multān;1528075;30.2;71.45
VNM;ALL;Hà Nội;1527411;21.03;105.84
BRA;ALL;Belém;1522035;-1.44;-48.5
USA;PA;Philadelphia city;1517550;39.998012;-75.144793
ARG;ALL;Córdoba;1512866;-31.4;-64.19
UGA;ALL;Kampala;1507042;0.32;32.58
TGO;ALL;Lomé;1501777;6.17;1.35
PAK;ALL;Hyderabad;1496163;25.38;68.37
CHN;ALL;Suzhou;1489146;31.3;120.62
IND;ALL;Vadodara;1487956;22.31;73.18
PAK;ALL;Gujrānwāla;1484172;32.16;74.18
TUR;ALL;Bursa;1481716;40.2;29.08
COD;ALL;Mbuji-Mayi;1473946;-6.13;23.59
IND;ALL;Pimpri;1471494;18.62;73.8
IRN;ALL;Karaj;1468773;35.8;50.97
IDN;ALL;Tangerang;1464490;-6.18;106.63
NGA;ALL;Aba;1461461;5.1;7.35
UKR;ALL;Kharkiv;1460446;49.98;36.22
MEX;MEX-PUE;Puebla;1459695;19.05;-98.22
IND;ALL;Nāshik;1459589;20.01;73.78
MYS;ALL;Kuala Lumpur;1458790;3.16;101.71
KOR;ALL;Taejŏn;1431880;36.33;127.43
CHN;ALL;Lanzhou;1431444;36.05;103.68
SAU;ALL;Mecca;1421715;21.43;39.82
CHN;ALL;Shantou;1421689;23.37;116.67
KOR;ALL;Koyang;1420926;37.7;126.93
CHN;ALL;Hefei;1417747;31.85;117.28
BRA;ALL;Porto Alegre;1414351;-30.04;-51.22
TUR;ALL;Adana;1410896;37;35.32
IDN;ALL;Makasar;1410551;-5.14;119.41
IRN;ALL;Tabrīz;1409077;38.08;46.3
BGD;ALL;Nārāyanganj;1407871;23.62;90.5
IND;ALL;Farīdābad;1407265;28.38;77.3
CHN;ALL;Fushun;1404944;41.87;123.88
KHM;ALL;Phnum Pénh;1398449;11.57;104.92
RUS;ALL;Novosibirsk;1386829;55.04;82.93
CHN;ALL;Luoyang;1385687;34.68;112.47
BGD;ALL;Khulnā;1378032;22.84;89.56
IDN;ALL;Depok;1377510;-6.39;106.83
ZMB;ALL;Lusaka;1377130;-15.42;28.29
IND;ALL;Ghāziābād;1371673;28.66;77.41
CHN;ALL;Handan;1368724;36.58;114.48
KOR;ALL;Kwangju;1359308;35.16;126.91
PAK;ALL;Peshāwar;1344967;34.01;71.54
IND;ALL;Rājkot;1335397;22.31;70.79
KOR;ALL;Suwŏn;1333428;37.26;127.01
MMR;ALL;Mandalay;1329943;21.98;96.09
KAZ;ALL;Almaty;1328362;43.32;76.92
DEU;ALL;München;1328355;48.14;11.58
IND;ALL;Mīrat;1325929;28.99;77.7
CHN;ALL;Baotou;1323565;40.6;110.05
ITA;ALL;Milano;1321294;45.48;9.19
USA;AZ;Phoenix city;1321045;33.528370;-112.076300
CHN;ALL;Rongcheng;1312718;23.54;116.34
IND;ALL;Kalyān;1312595;19.25;73.16
URY;ALL;Montevideo;1311358;-34.87;-56.17
CHN;ALL;Xianggangdao;1310272;22.27;114.14
RUS;ALL;Yekaterinburg;1306755;56.85;60.6
BFA;ALL;Ouagadougou;1292462;12.37;-1.53
BRA;ALL;Guarulhos;1286855;-23.46;-46.49
IDN;ALL;Semarang;1285269;-6.97;110.42
CHN;ALL;Xuzhou;1274593;34.27;117.18
RUS;ALL;Nizhniy Novgorod;1270686;56.33;44
AUS;ALL;Perth;1266609;-31.96;115.84
SWE;ALL;Stockholm;1265999;59.33;18.07
IDN;ALL;Palembang;1264925;-2.99;104.75
BRA;ALL;Goiânia;1247525;-16.72;-49.26
TUR;ALL;Gaziantep;1245124;37.07;37.39
IRN;ALL;Shīrāz;1233146;29.63;52.57
ARG;ALL;Rosario;1228978;-32.94;-60.67
CHN;ALL;Fuzhou;1225383;26.08;119.3
USA;CA;San Diego city;1223400;32.779541;-117.146344
MEX;MEX-EMEX;Nezahualcóyotl;1220062;19.41;-99.03
CHN;ALL;Shenzhen;1204109;22.53;114.13
ARM;ALL;Yerevan;1195519;40.17;44.52
LBY;ALL;Tripoli;1191047;32.87;13.18
CHN;ALL;Anshan;1190810;41.12;122.95
IND;ALL;Vārānasī;1188704;25.32;83.01
USA;TX;Dallas city;1188580;32.799528;-96.787166
CHN;ALL;Guiyang;1185966;26.58;106.72
AZE;ALL;Baku;1182974;40.39;49.86
CHN;ALL;Wuxi;1182529;31.58;120.3
CZE;ALL;Praha;1181032;50.08;14.43
COG;ALL;Brazzaville;1180176;-4.25;15.26
MYS;ALL;Subang Jaya;1174972;3.15;101.53
MEX;MEX-GTO;León;1173961;21.12;-101.69
IND;ALL;Amritsar;1165066;31.64;74.87
CHN;ALL;Huainan;1158772;32.63;116.98
COL;ALL;Barranquilla;1145003;10.96;-74.8
USA;TX;San Antonio city;1144646;29.451532;-98.512682
LBR;ALL;Monrovia;1144018;6.31;-10.8
JOR;ALL;Ammān;1135733;31.95;35.93
RUS;ALL;Omsk;1132843;55;73.4
GEO;ALL;Tbilisi;1131618;41.72;44.79
RUS;ALL;Samara;1129593;53.2;50.15
NGA;ALL;Abuja;1129345;9.06;7.49
IND;ALL;Aurangābād;1127755;19.89;75.32
BGR;ALL;Sofia;1125858;42.69;23.31
RUS;ALL;Kazan;1116930;55.75;49.13
MEX;MEX-NL;Monterrey;1116821;25.67;-100.32
ZAF;ALL;Port Elizabeth;1112768;-33.96;25.59
IND;ALL;Navi Mumbai;1110110;19.11;73.06
MOZ;ALL;Maputo;1109798;-25.95;32.57
IND;ALL;Allahābād;1107072;25.45;81.84
BRA;ALL;Campinas;1095220;-22.91;-47.08
IND;ALL;Sholāpur;1094553;17.67;75.89
IRQ;ALL;Irbīl;1091636;36.18;44.01
RUS;ALL;Chelyabinsk;1091540;55.15;61.43
VEN;ALL;Barquisimeto;1085483;10.05;-69.3
DNK;ALL;København;1082884;55.67;12.58
CHN;ALL;Xianyang;1079300;34.37;108.7
CHN;ALL;Baoding;1076288;38.87;115.48
GTM;ALL;Guatemala;1074410;14.63;-90.55
BRA;ALL;Maceió;1073565;-9.65;-35.75
BRA;ALL;Nova Iguaçu;1068293;-22.74;-43.47
CHN;ALL;Kunming;1067557;25.05;102.7
NGA;ALL;Maiduguri;1065429;11.85;13.16
CHN;ALL;Datong;1059877;40.08;113.3
IRL;ALL;Dublin;1058265;53.33;-6.25
RUS;ALL;Rostov-na-Donu;1050936;47.24;39.71
IND;ALL;Jabalpur;1050875;23.17;79.94
IND;ALL;Visakhapatnam;1050380;17.73;83.3
UKR;ALL;Dnipropetrovs'k;1046922;48.45;34.98
EGY;ALL;Shubra-El-Khema;1045370;30.11;31.25
IND;ALL;Srīnagar;1040263;34.09;74.79
CHN;ALL;Benxi;1040148;41.33;123.75
BEL;ALL;Brussels;1039942;50.83;4.33
SAU;ALL;al-Madīnah;1039873;24.48;39.59
AUS;ALL;Adelaide;1039516;-34.93;138.6
MEX;MEX-JAL;Zapopan;1038598;20.72;-103.4
IND;ALL;Hāora;1033158;22.58;88.33
CAN;AB;Calgary;1032626;51.05;-114.06
RUS;ALL;Ufa;1024480;54.78;56.04
HND;ALL;Tegucigalpa;1021661;14.09;-87.22
IND;ALL;Rānchi;1021628;23.36;85.33
KOR;ALL;Sŏngnam;1016969;37.44;127.15
NGA;ALL;Ilorin;1014565;8.49;4.55
MAR;ALL;Fes, Fez;1008782;34.05;-5
MYS;ALL;Klang;1004194;3.04;101.45
IND;ALL;Chandīgarh;1003301;30.75;76.78
IRN;ALL;Ahvāz;1003162;31.28;48.72
IND;ALL;Koyampattur;999777;11.01;76.96
DEU;ALL;Köln;995824;50.95;6.97
IRN;ALL;Qom;995530;34.65;50.95
UKR;ALL;Odesa;994739;46.47;30.73
UKR;ALL;Donetsk;990132;48;37.82
RUS;ALL;Perm;989223;58;56.25
IND;ALL;Jodhpur;987124;26.29;73.02
BRA;ALL;São Luís;986476;-2.5;-44.3
BRA;ALL;São Gonçalo;985283;-22.84;-43.07
RUS;ALL;Volgograd;984157;48.71;44.48
CHN;ALL;Huaibei;976220;33.95;116.75
CHN;ALL;Changzhou;975848;31.78;119.97
IND;ALL;Maisūru;973856;12.31;76.65
IND;ALL;Guwāhāti;973019;26.19;91.75
TUR;ALL;Konya;970742;37.88;32.48
ITA;ALL;Napoli;965421;40.85;14.27
IND;ALL;Vijayawāda;957370;16.52;80.63
USA;MI;Detroit city;951270;42.387137;-83.102641
KOR;ALL;Ulsan;951074;35.55;129.31
GBR;ENG;Birmingham;948463;52.48;-1.91
VEN;ALL;Ciudad Guayana;940477;8.37;-62.62
COD;ALL;Kolwezi;932258;-10.7;25.66
IDN;ALL;Padang;929429;-0.95;100.35
RUS;ALL;Krasnoyarsk;926577;56.02;93.06
NIC;ALL;Managua;922248;12.15;-86.27
ARG;ALL;Mendoza;919824;-32.89;-68.83
IND;ALL;Gwalior;919550;26.23;78.17
KGZ;ALL;Bişkek;914932;42.87;74.57
NPL;ALL;Kathmandu;911084;27.71;85.31
BOL;ALL;El Alto;907887;-16.5;-68.17
NER;ALL;Niamey;907178;13.52;2.12
RWA;ALL;Kigali;904779;-1.94;30.06
CHN;ALL;Qiqihar;903824;47.35;124
MNG;ALL;Ulaanbaatar;903273;47.93;106.91
IND;ALL;Madurai;901681;9.92;78.12
CAN;AB;Edmonton;895435;53.57;-113.54
USA;CA;San Jose city;894943;37.304051;-121.872734
TKM;ALL;Aşgabat;891879;37.95;58.38
SDN;ALL;al-H̱arţūm Bah̨rī;889963;15.64;32.52
PER;ALL;Arequipa;887367;-16.39;-71.53
MAR;ALL;Marrakech, Marrakesh;887192;31.63;-8
IDN;ALL;Bandar Lampung;886569;-5.44;105.27
CHN;ALL;Pingdingshan;886544;33.73;113.3
COL;ALL;Cartagena;885718;10.4;-75.5
IND;ALL;Hubli;879506;15.36;75.13
BOL;ALL;La Paz;877363;-16.5;-68.15
CHN;ALL;Wenzhou;873914;28.02;120.65
CAN;ON;Ottawa;870591;45.42;-75.71
MYS;ALL;Johor Bahru;867507;1.48;103.75
KEN;ALL;Mombasa;867028;-4.04;39.66
MWI;ALL;Lilongwe;866272;-13.97;33.8
ITA;ALL;Torino;864875;45.08;7.68
BRA;ALL;Duque de Caxias;862267;-22.77;-43.31
ARE;ALL;Abu Dhabi;859749;24.48;54.37
IND;ALL;Jalandhar;857717;31.33;75.57
NGA;ALL;Warri;854327;5.52;5.76
ESP;ALL;Valencia;854131;39.48;-0.39
NOR;ALL;Oslo;852007;59.91;10.75
CHN;ALL;Taian;851830;36.2;117.12
SAU;ALL;ad-Dammām;849868;26.43;50.1
IND;ALL;Mira Bhayandar;849588;19.29;72.85
IND;ALL;Salem;849444;11.67;78.16
ZAF;ALL;Pietermaritzburg;847319;-29.61;30.39
MEX;MEX-EMEX;Naucalpan;846306;19.48;-99.23
SYR;ALL;H̨imş;845752;34.73;36.72
RUS;ALL;Voronezh;845301;51.72;39.26
IND;ALL;Bhubaneswar;843581;20.27;85.84
RUS;ALL;Saratov;840679;51.57;46.03
IRQ;ALL;Kirkūk;835927;35.47;44.39
NGA;ALL;Onitsha;832705;6.14;6.78
PAK;ALL;Quetta;825889;30.21;67.02
IND;ALL;Alīgarh;823085;27.89;78.06
SLE;ALL;Freetown;819634;8.49;-13.24
ARG;ALL;Tucumán;818672;-26.83;-65.22
IDN;ALL;Bogor;817822;-6.58;106.79
IND;ALL;Thiruvananthapuram;813460;8.51;76.95
IND;ALL;Bareli;812337;28.36;79.41
PHL;ALL;Cebu;811365;10.32;123.9
IND;ALL;Kota;810509;25.18;75.83
BRA;ALL;Natal;808713;-5.8;-35.22
KOR;ALL;Shihŭng;807823;37.46;126.89
KOR;ALL;Puchŏn;807201;37.48;126.77
IND;ALL;Tiruchchirāppalli;806699;10.81;78.69
PER;ALL;Trujillo;804505;-8.11;-79.03
ARE;ALL;Sharjah;801004;25.37;55.41
IRN;ALL;Kermānshāh;800367;34.38;47.06
CHN;ALL;Qinhuangdao;799729;39.93;119.62
CHN;ALL;Anyang;799428;36.08;114.35
IND;ALL;Bhiwandi;799314;19.3;73.05
IRQ;ALL;an-Najaf;799137;32;44.34
BRA;ALL;São Bernardo do Campo;798563;-23.71;-46.54
BRA;ALL;Teresina;797570;-5.1;-42.8
CHN;ALL;Nanning;795966;22.82;108.32
TUR;ALL;Antalya;791658;36.89;30.71
BRA;ALL;Campo Grande;791209;-20.45;-54.63
BRA;ALL;Jaboatão;790815;-8.11;-35.02
UKR;ALL;Zaporizhzhya;789548;47.85;35.17
CHN;ALL;Hohhot;787905;40.82;111.64
FRA;ALL;Marseille;785801;43.31;5.37
IND;ALL;Morādābād;785105;28.84;78.76
CHN;ALL;Zhangjiakou;783921;40.83;114.93
USA;IN;Indianapolis city (balance);781870;39.790942;-86.147685
CHN;ALL;Liuzhou;776992;24.28;109.25
USA;CA;San Francisco city;776733;37.759881;-122.437392
MRT;ALL;Nouakchott;775758;18.09;-15.98
BGD;ALL;Rājshāhī;773471;24.37;88.59
CHN;ALL;Yantai;769916;37.53;121.4
CHN;ALL;Xining;763336;36.62;101.77
HTI;ALL;Port-au-Prince;762558;18.54;-72.34
CHN;ALL;Hegang;761228;47.4;130.37
NGA;ALL;Akure;760107;7.25;5.19
TCD;ALL;N'Djaména;759993;12.11;15.05
MEX;MEX-NL;Guadalupe;755882;25.68;-100.26
POL;ALL;Kraków;755711;50.06;19.96
IDN;ALL;Malang;753854;-7.98;112.62
CHN;ALL;Hengyang;753255;26.89;112.62
GRC;ALL;Athina;752173;37.98;23.73
CHN;ALL;Puyang;752147;35.7;114.98
ISR;ALL;Jerusalem;750892;31.78;35.22
NLD;ALL;Amsterdam;750553;52.37;4.89
POL;ALL;Łódź;750214;51.77;19.46
MEX;MEX-YUC;Mérida;748571;20.97;-89.62
NGA;ALL;Abeokuta;741669;7.16;3.35
CHN;ALL;Xinxiang;740984;35.32;113.87
IND;ALL;Raipur;739523;21.24;81.63
TUN;ALL;Tunis;739436;36.84;10.22
MEX;MEX-CHIH;Chihuahua;738241;28.63;-106.08
USA;FL;Jacksonville city;735617;30.319406;-81.659999
UKR;ALL;L'viv;734245;49.83;24
BEN;ALL;Cotonou;734108;6.36;2.44
IDN;ALL;Pekan Baru;733898;0.56;101.43
MWI;ALL;Blantyre;732518;-15.79;34.99
ARG;ALL;La Plata;731458;-34.92;-57.96
ZWE;ALL;Bulawayo;731003;-20.17;28.58
MAR;ALL;Tanger, Tangier;730849;35.79;-5.81
TUR;ALL;Kayseri;730262;38.74;35.48
CHN;ALL;Foshan;729045;23.03;113.12
CHN;ALL;Ningbo;726721;29.88;121.55
CHN;ALL;Langfang;725636;39.52;116.68
MYS;ALL;Ampang Jaya;723531;3.15;101.77
CHN;ALL;Liaoyang;717367;41.28;123.18
LVA;ALL;Rīga;717231;56.97;24.13
CHN;ALL;Changzhi;714849;35.22;111.75
UKR;ALL;Kryvyy Rih;714453;47.92;33.35
GAB;ALL;Libreville;713167;0.39;9.45
KOR;ALL;Chŏnju;712720;35.83;127.14
USA;OH;Columbus city;711470;39.989783;-82.991460
IRQ;ALL;as-Sulaymānīyah;711371;35.56;45.43
BRA;ALL;Osasco;709649;-23.53;-46.78
PHL;ALL;Zamboanga;708726;6.92;122.08
RUS;ALL;Tolyatti;708403;53.48;49.51
MEX;MEX-EMEX;Tlalnepantla;708265;19.54;-99.19
RUS;ALL;Krasnodar;707892;45.03;38.98
IND;ALL;Gorakhpur;707516;26.76;83.36
MEX;MEX-SLP;San Luis Potosí;706707;22.16;-100.98
ESP;ALL;Sevilla;705312;37.4;-5.98
CHN;ALL;Zhuzhou;703430;27.83;113.15
HRV;ALL;Zagreb;703185;45.8;15.97
CHN;ALL;Huangshi;703152;30.22;115.1
CHL;ALL;Puente Alto;702948;-33.61;-70.57
CHN;ALL;Shaoguan;702904;24.8;113.58
MOZ;ALL;Matola;701999;-25.97;32.46
CHN;ALL;Guilin;700388;25.28;110.28
MEX;MEX-AGS;Aguascalientes;697715;21.88;-102.3
LBY;ALL;Benghazi;696345;32.12;20.07
CHN;ALL;Fuxin;694525;42.01;121.65
BRA;ALL;João Pessoa;693094;-7.12;-34.86
MYS;ALL;Ipoh;692101;4.6;101.07
BRA;ALL;Contagem;691519;-19.91;-44.1
TJK;ALL;Dushanbe;689123;38.57;68.78
CHN;ALL;Zhanjiang;688367;21.2;110.38
CHN;ALL;Xingtai;687653;37.07;114.49
IDN;ALL;Yogyakarta;686716;-7.78;110.37
IND;ALL;Bhilai;685863;21.21;81.38
CHN;ALL;Zigong;683817;29.4;104.78
CHN;ALL;Mudanjiang;683653;44.58;129.6
DZA;ALL;Wahrān;680947;35.7;-0.62
NGA;ALL;Enugu;679764;6.44;7.51
BRA;ALL;Santo André;679464;-23.65;-46.53
LKA;ALL;Colombo;678130;6.93;79.85
MEX;MEX-EMEX;Chimalhuacán;677461;19.44;-98.96
CHN;ALL;Shatian;674237;22.38;114.19
BRA;ALL;São José dos Campos;672262;-23.2;-45.88
CHN;ALL;Zhangdian;669967;36.8;118.06
MEX;MEX-GRO;Acapulco;669366;16.85;-99.92
CHN;ALL;Xiangtan;668555;27.85;112.9
CAN;QC;Quebec;668478;46.82;-71.23
PHL;ALL;Dasmariñas;667009;14.33;120.93
NGA;ALL;Zaria;666004;11.08;7.71
CHN;ALL;Nantong;665398;32.02;120.82
COG;ALL;Pointe Noire;662813;-4.77;11.87
CHN;ALL;Shaoyang;661928;27;111.2
MEX;MEX-QRO;Querétaro;658238;20.59;-100.4
CAN;ON;Hamilton;658070;43.26;-79.85
PAK;ALL;Islāmābād;657788;33.72;73.06
CHN;ALL;Panjin;657731;41.18;122.05
MEX;MEX-COAH;Saltillo;656729;25.42;-101
USA;TX;Austin city;656562;30.300474;-97.747247
KOR;ALL;Ansan;655467;37.35;126.86
IND;ALL;Jamshedpur;655290;22.79;86.2
ESP;ALL;Zaragoza;654550;41.65;-0.89
MEX;MEX-QROO;Cancún;654414;21.17;-86.83
CHN;ALL;Dandong;654066;40.13;124.4
DEU;ALL;Frankfurt;653227;50.12;8.68
ITA;ALL;Palermo;652868;38.12;13.36
USA;MD;Baltimore city;651154;39.307956;-76.617016
CHN;ALL;Haikou;650963;20.05;110.32
USA;TN;Memphis city;650100;35.117365;-89.971068
IND;ALL;Amrāvati;646416;20.95;77.76
CAN;MB;Winnipeg;645496;49.88;-97.17
CHN;ALL;Zhangzhou;641847;24.52;117.67
PLW;ALL;Ġazzah;635450;31.53;34.44
IND;ALL;Kataka;633893;20.47;85.88
MYS;ALL;Kuching;632505;1.55;110.34
POL;ALL;Wrocław;632499;51.11;17.03
ERI;ALL;Āsmara;632315;15.33;38.94
CHN;ALL;Zhenjiang;631742;32.22;119.43
ZAF;ALL;Benoni;630195;-26.15;28.33
TUR;ALL;Mersin;629635;36.81;34.63
CHN;ALL;Yancheng;627636;33.39;120.12
MEX;MEX-SON;Hermosillo;627378;29.07;-110.97
CHN;ALL;Yuanlong;627017;22.44;114.02
BRA;ALL;Uberlândia;626068;-18.9;-48.28
CIV;ALL;Bouaké;624507;7.69;-5.03
DOM;ALL;Santiago;624252;19.48;-70.69
MEX;MEX-BC;Mexicali;622628;32.65;-115.47
VNM;ALL;Hải Phòng;619583;20.86;106.68
KOR;ALL;Anyang;619481;37.39;126.92
PHL;ALL;Dadiangas;619469;6.1;125.25
MEX;MEX-MICH;Morelia;618313;19.72;-101.18
NGA;ALL;Oshogbo;617343;7.77;4.56
KOR;ALL;Chŏngju;617188;36.64;127.5
RUS;ALL;Izhevsk;615114;56.85;53.23
NGA;ALL;Jos;614299;9.93;8.89
ARE;ALL;al-'Ayn;614180;24.23;55.74
BRA;ALL;Sorocaba;613650;-23.49;-47.47
IND;ALL;Bīkāner;612699;28.03;73.32
CHN;ALL;Taizhou;611572;32.49;119.9
RUS;ALL;Ulyanovsk;610804;54.33;48.4
PHL;ALL;Antipolo;610395;14.59;121.18
CHN;ALL;Xiamen;610137;24.45;118.08
BOL;ALL;Cochabamba;608276;-17.38;-66.17
MEX;MEX-SIN;Culiacán;608209;24.8;-107.39
CHN;ALL;Yingkou;607883;40.67;122.28
CHN;ALL;Siping;607419;43.17;124.33
IRN;ALL;Orūmīyeh;605809;37.53;45
CHN;ALL;Luancheng;601704;37.88;114.65
TUR;ALL;Diyarbakır;601140;37.92;40.23
GTM;ALL;Mixco;600214;14.64;-90.6
RUS;ALL;Yaroslavl;599979;57.62;39.87
RUS;ALL;Barnaul;598977;53.36;83.75
IDN;ALL;Banjarmasin;598518;-3.33;114.59
MDA;ALL;Chişinău;598355;47.03;28.83
USA;WI;Milwaukee city;596974;43.052162;-87.955910
DJI;ALL;Djibouti;596396;11.59;43.15
DEU;ALL;Stuttgart;595182;48.79;9.19
NLD;ALL;Rotterdam;592995;51.93;4.48
CHN;ALL;Jinzhou;592235;41.12;121.1
COD;ALL;Kisangani;592195;0.53;25.19
HND;ALL;San Pedro Sula;592187;15.47;-88.03
CHN;ALL;Bengbu;591616;32.95;117.33
CHN;ALL;Shihezi;590662;44.3;86.03
VEN;ALL;Maracay;590421;10.33;-67.47
COL;ALL;Cúcuta;589582;7.88;-72.51
IND;ALL;Bhāvnagar;589351;21.79;72.13
USA;MA;Boston city;589141;42.321597;-71.089115
EGY;ALL;Port Said;588935;31.26;32.29
ITA;ALL;Genoa;588450;44.42;8.93
CHN;ALL;Jiangmen;587618;22.58;113.08
DEU;ALL;Dortmund;587017;51.51;7.48
MEX;MEX-VER;Veracruz;586355;19.19;-96.14
BRA;ALL;Ribeirão Preto;586216;-21.17;-47.8
ARG;ALL;Mar del Plata;584702;-38;-57.58
TUR;ALL;Eskişehir;582397;39.79;30.52
IND;ALL;Warangal;582350;18.01;79.58
IRN;ALL;Zāhedān;581075;29.5;60.83
DEU;ALL;Essen;580906;51.47;7
DEU;ALL;Düsseldorf;580267;51.24;6.79
CHN;ALL;Kaifeng;580051;34.85;114.35
RUS;ALL;Vladivostok;579294;43.13;131.9
JAM;ALL;Kingston;578825;17.99;-76.8
GBR;SCT;Glasgow;578640;55.87;-4.27
MYS;ALL;Shah Alam;577626;3.07;101.56
CHN;ALL;Maoming;577161;21.92;110.87
RUS;ALL;Khabarovsk;576651;48.42;135.12
MAR;ALL;Meknes;576152;33.9;-5.56
PRK;ALL;Hamhŭng;575463;39.91;127.54
GTM;ALL;Villa Nueva;574709;14.53;-90.59
PAK;ALL;Sargodha;573541;32.08;72.67
RUS;ALL;Irkutsk;572107;52.33;104.24
USA;DC;Washington city;572059;38.913611;-77.013222
IRN;ALL;Resht;572049;37.3;49.63
CHN;ALL;Cangzhou;570642;38.32;116.87
CHN;ALL;Tanggu;569357;39;117.67
FIN;ALL;Helsinki;568164;60.17;24.94
ESP;ALL;Málaga;566319;36.72;-4.42
NGA;ALL;Ife;565626;7.48;4.56
USA;TX;El Paso city;563662;31.790208;-106.423242
USA;WA;Seattle city;563374;47.626353;-122.333144
CHN;ALL;Changde;562947;29.03;111.68
SAU;ALL;aţ-Ţā'īf;562523;21.26;40.38
IDN;ALL;Surakarta;561548;-7.57;110.82
RUS;ALL;Novokuznetsk;561129;53.75;87.1
POL;ALL;Poznań;560965;52.4;16.9
VEN;ALL;Barcelona;560675;10.13;-64.72
ZAF;ALL;Bloemfontein;559423;-29.15;26.23
MEX;MEX-EMEX;López Mateos;558662;19.57;-99.26
CAF;ALL;Bangui;558235;4.36;18.56
MEX;MEX-TAM;Reynosa;558007;26.08;-98.28
CHN;ALL;Xigong;557990;22.33;114.25
BRA;ALL;Cuiabá;557613;-15.61;-56.09
RUS;ALL;Tyumen;557255;57.15;65.53
IND;ALL;Shilīguri;555729;26.73;88.42
CHN;ALL;Jiamusi;554710;46.83;130.35
USA;CO;Denver city;554636;39.726287;-104.965486
CHN;ALL;Huaiyin;554519;33.58;119.03
ZAF;ALL;Welkom;553854;-27.97;26.73
IND;ALL;Kolhāpur;553815;16.7;74.22
IND;ALL;Ulhāsnagar;552448;19.23;73.15
IND;ALL;Rājpur;552216;22.44;88.44
DEU;ALL;Bremen;548852;53.08;8.81
SLV;ALL;San Salvador;548269;13.69;-89.19
CHN;ALL;Maanshan;547159;31.73;118.48
ZAF;ALL;Tembisa;546959;-25.99;28.22
MEX;MEX-EMEX;Toluca;546122;19.29;-99.67
USA;TN;Nashville-Davidson (balance);545524;36.154838;-86.762141
AUS;ALL;Gold Coast;544985;-28.07;153.44
MYS;ALL;Kota Kinabalu;543765;5.97;116.07
LTU;ALL;Vilnius;543642;54.7;25.27
MAR;ALL;Agadir;542130;30.42;-9.61
IND;ALL;Ajmer;542057;26.45;74.64
CHN;ALL;Neijiang;541984;29.58;105.05
USA;NC;Charlotte city;540828;35.207193;-80.829224
ARG;ALL;Salta;540478;-24.79;-65.41
IND;ALL;Guntūr;540011;16.31;80.44
CHN;ALL;Yangzhou;539024;32.4;119.43
IND;ALL;Durgāpur;538306;23.5;87.31
CHN;ALL;Shashi;538152;30.32;112.23
PRY;ALL;Asunción;537221;-25.3;-57.63
BRA;ALL;Aparecida de Goiânia;537118;-16.82;-49.24
BRA;ALL;Ribeirão das Neves;536079;-19.76;-44.08
MYS;ALL;Petaling Jaya;535658;3.1;101.62
IND;ALL;Sangli-Miraj;535147;16.86;74.57
IND;ALL;Dehra Dūn;534894;30.34;78.05
USA;TX;Fort Worth city;534694;32.738881;-97.333790
VEN;ALL;Maturín;534563;9.75;-63.17
MEX;MEX-COAH;Torreón;533492;25.55;-103.43
CHN;ALL;Jiaozuo;533419;35.25;113.22
CHN;ALL;Zhuhai;530413;22.28;113.57
IND;ALL;Nānded;529145;19.17;77.29
USA;OR;Portland city;529121;45.523040;-122.640155
EGY;ALL;Suez;529055;29.98;32.54
RUS;ALL;Orenburg;528382;51.78;55.1
PHL;ALL;Cagayan;526945;8.45;124.67
TZA;ALL;Mwanza;526343;-2.52;32.89
VEN;ALL;Petare;525436;10.52;-66.83
COL;ALL;Soledad;524472;10.92;-74.77
KOR;ALL;Ŭijŏngbu;524186;37.74;127.04
CHN;ALL;Yueyang;523727;29.38;113.1
BRA;ALL;Feira de Santana;523303;-12.25;-38.97
IRN;ALL;Kermān;521655;30.3;57.08
CMR;ALL;Garoua;518985;9.3;13.39
MEX;MEX-JAL;Tlaquepaque;518927;20.64;-103.32
MEX;MEX-CHIS;Tuxtla Gutiérrez;518796;16.75;-93.12
IND;ALL;Jāmnagar;518603;22.47;70.07
IND;ALL;Jammu;517743;32.71;74.85
IND;ALL;Gulbarga;517552;17.34;76.82
PER;ALL;Chiclayo;517369;-6.76;-79.84
RUS;ALL;Kemerovo;517097;55.33;86.08
DEU;ALL;Hanover;516950;52.4;9.73
COL;ALL;Bucaramanga;516891;7.13;-73.13
PAK;ALL;Bahāwalpur;516882;29.39;71.67
SWE;ALL;Göteborg;516457;57.72;12.01
CHN;ALL;Zhunmen;516426;22.41;113.98
IND;ALL;Bhātpāra;516351;22.89;88.42
PHL;ALL;Calamba;516199;14.21;121.15
KOR;ALL;Changwŏn;515974;35.27;128.62
BRA;ALL;Aracaju;515754;-10.91;-37.07
CHN;ALL;Zunyi;515257;27.7;106.92
DEU;ALL;Dresden;514273;51.05;13.74
IND;ALL;Sahāranpur;513300;29.97;77.54
SYR;ALL;H̨amāh;512854;35.15;36.73
SDN;ALL;Niyālā;512679;12.06;24.89
MEX;MEX-NL;San Nicolás de los Garza;512447;25.75;-100.3
IRQ;ALL;al-H̨illah;511013;32.48;44.43
RUS;ALL;Ryazan;510324;54.62;39.74
DEU;ALL;Leipzig;510302;51.35;12.4
CHN;ALL;Xuchang;509046;34.02;113.82
CHN;ALL;Wuhu;508846;31.35;118.37
COD;ALL;Boma;508252;-5.85;13.05
COD;ALL;Kananga;507846;-5.89;22.4
UKR;ALL;Mykolayiv;507213;46.97;32
RUS;ALL;Penza;506623;53.2;45
RUS;ALL;Naberezhnyye Chelny, Yarchally;506620;55.69;52.32
USA;OK;Oklahoma City city;506132;35.482309;-97.534994
BRA;ALL;Londrina;505932;-23.3;-51.18
RUS;ALL;Lipetsk;502976;52.62;39.62
SAU;ALL;Tabūk;502743;28.39;36.57
MEX;MEX-EMEX;Cuautitlán Izcalli;502590;19.65;-99.25
DEU;ALL;Nuremberg;502371;49.45;11.05
RUS;ALL;Tula;500513;54.2;37.61
ARG;ALL;Santa Fé;500365;-31.6;-60.69
BRA;ALL;Joinville;500009;-26.32;-48.84
CHN;ALL;Aomen;499344;22.27;113.56
SDN;ALL;Būr Sūdān;499279;19.63;37.12
IRQ;ALL;Karbalā';498347;32.61;44.03
IND;ALL;Asansol;497240;23.69;86.98
RUS;ALL;Astrakhan;497112;46.35;48.05
DEU;ALL;Duisburg;496662;51.43;6.75
COD;ALL;Likasi;496561;-10.98;26.73
MOZ;ALL;Nampula;496318;-15.13;39.24
BRA;ALL;Belford Roxo;496278;-22.75;-43.42
BRA;ALL;Juiz de Fora;496255;-21.75;-43.36
PAK;ALL;Siālkot;494591;32.52;74.55
CHN;ALL;Shiongshui;494314;22.52;114.12
IND;ALL;South Dum Dum;494115;22.61;88.41
IDN;ALL;Manado;494061;1.5;124.84
PRT;ALL;Lisboa;491888;38.72;-9.14
RUS;ALL;Tomsk;490927;56.5;84.97
ZMB;ALL;Kitwe;488426;-12.81;28.22
MMR;ALL;Mawlamyine;488345;16.49;97.63
CHN;ALL;Jining;488290;35.4;116.55
COL;ALL;Ibagué;488278;4.45;-75.24
NLD;ALL;s-Gravenhage;486780;52.07;4.3
USA;AZ;Tucson city;486699;32.214476;-110.918192
VNM;ALL;Đà Nẵng;486690;16.07;108.21
CMR;ALL;Bamenda;485799;5.96;10.15
USA;LA;New Orleans city;484674;29.972754;-90.059011
CHN;ALL;Yinchuan;483721;38.47;106.32
BEN;ALL;Abomey-Calavi;483273;6.44;2.36
FRA;ALL;Lyon;482717;45.76;4.83
IRN;ALL;Hamadān;482691;34.77;48.58
TUR;ALL;Urfa;482070;37.17;38.79
CHN;ALL;Shaoxing;481241;30;120.57
IND;ALL;Jālgaon;479992;21.01;75.56
CHN;ALL;Yichang;478843;30.7;111.28
MKD;ALL;Skopje;478725;42;21.47
ARG;ALL;San Juan;478502;-31.54;-68.53
USA;NV;Las Vegas city;478434;36.194168;-115.222060
USA;OH;Cleveland city;478403;41.482301;-81.669718
PHL;ALL;Bacolod;478141;10.63;122.97
CHN;ALL;Chaozhou;477711;23.67;116.64
IND;ALL;Ujjain;477264;23.19;75.78
BLR;ALL;Homjel';477161;52.43;30.99
UKR;ALL;Mariupol';476860;47.1;37.55
IND;ALL;Maheshtala;475209;22.51;88.23
CHN;ALL;Jiaojiang;475160;28.68;121.45
CHN;ALL;Hengshui;475033;37.72;115.7
RUS;ALL;Kirov;473245;58.6;49.66
MEX;MEX-DGO;Durango;473018;24.03;-104.67
RUS;ALL;Makhachkala;471835;42.98;47.5
CHN;ALL;Luohe;471812;33.57;114.03
MEX;MEX-TAM;Matamoros;471430;25.88;-97.5
CHN;ALL;Jiaxing;470539;30.77;120.75
BRA;ALL;Florianópolis;470191;-27.6;-48.54
EGY;ALL;Luxor;469440;25.7;32.65
BRA;ALL;Ananindeua;469190;-1.38;-48.38
BEL;ALL;Antwerp;468954;51.22;4.42
ZMB;ALL;Ndola;467397;-12.97;28.64
MEX;MEX-JAL;Tonalá;466725;20.62;-103.23
IDN;ALL;Pontianak;466090;-0.02;109.34
ZAF;ALL;Vereeniging;465656;-26.65;27.96
EGY;ALL;El Mansura;465375;31.04;31.38
CHN;ALL;Liaoyuan;465312;42.9;125.13
DZA;ALL;Constantine;465078;36.36;6.6
BRA;ALL;Serra;464909;-20.13;-40.32
BRA;ALL;São João de Meriti;464790;-22.8;-43.35
CHN;ALL;Xiangfan;464688;32.02;112.13
BRA;ALL;Niterói;464064;-22.9;-43.13
PRK;ALL;Nampo;462985;38.76;125.45
USA;CA;Long Beach city;461522;33.804133;-118.158028
PAK;ALL;Sukkur;460899;27.7;68.85
HTI;ALL;Carrefour;460251;18.53;-72.42
BRA;ALL;Betim;460194;-19.97;-44.19
IND;ALL;Gaya;459600;24.81;85
CHN;ALL;Chaoyang;459586;41.55;120.42
BFA;ALL;Bobo Dioulasso;459261;11.18;-4.29
ZAF;ALL;Boksburg;457626;-26.27;28.23
CHN;ALL;Panzhihua;457286;26.58;101.68
CHN;ALL;Chengde;456797;40.96;117.93
GBR;ENG;Liverpool;456485;53.42;-2.99
CHN;ALL;Baoji;456460;34.38;107.15
SDN;ALL;Kassalā;455669;15.46;36.39
MEX;MEX-VER;Xalapa;455358;19.53;-96.92
IND;ALL;Tirunelveli;455238;8.73;77.69
IND;ALL;Mālegaon;455228;20.56;74.52
POL;ALL;Gdańsk;454725;54.36;18.64
KAZ;ALL;Shymkent;454583;42.32;69.59
MYS;ALL;Sandakan;453759;5.85;118.11
IDN;ALL;Balikpapan;453575;-1.26;116.83
IRQ;ALL;al-'Amārah;453426;31.84;47.15
IND;ALL;Korba;453047;22.35;82.69
TZA;ALL;Zanzibar;452774;-6.16;39.2
IND;ALL;Noida;452237;28.58;77.33
LBY;ALL;Mişrātah;451529;32.38;15.09
IND;ALL;Akola;451270;20.71;77
IND;ALL;Belgaum;451121;15.86;74.5
EGY;ALL;El Mahalla el Kubra;450833;30.97;31.17
ZAF;ALL;East London;450668;-32.97;27.87
IRN;ALL;Arāk;450050;34.08;49.7
CHN;ALL;Jixi;448719;45.3;130.97
IND;ALL;Udaipur;448635;24.58;73.69
USA;NM;Albuquerque city;448607;35.110703;-106.609991
FRA;ALL;Toulouse;448003;43.62;1.45
JOR;ALL;az-Zarqā';447880;32.07;36.1
UKR;ALL;Luhans'k;446959;48.57;39.33
CHN;ALL;Xinpu;446764;34.6;119.17
GBR;SCT;Edinburgh;446376;55.95;-3.22
IDN;ALL;Jambi;446149;-1.59;103.61
PHL;ALL;Bacoor;445285;14.46;120.94
RUS;ALL;Cheboksary;444427;56.13;47.25
CUB;ALL;Santiago de Cuba;444413;20.01;-75.82
ZAF;ALL;Sihlangu;444310;-27.75;29.92
IRN;ALL;Yazd;443586;31.92;54.37
IRQ;ALL;ad-Dīwānīyah;443485;31.99;44.93
VEN;ALL;Ciudad Bolívar;443377;8.1;-63.6
NGA;ALL;Ondo;443130;7.09;4.84
COL;ALL;Soacha;442427;4.58;-74.22
IND;ALL;Davanagere;441706;14.46;75.92
USA;MO;Kansas City city;441545;39.076304;-94.555406
GBR;ENG;Leeds;441129;53.81;-1.55
IND;ALL;Kozhikkod;441123;11.26;75.78
MOZ;ALL;Beira;439264;-19.83;34.84
THA;ALL;Samut Prakan;438201;13.61;100.61
SAU;ALL;H̱amīs Mušayţ;437584;18.31;42.73
TUR;ALL;Samsun;437300;41.29;36.33
CAN;ON;Kitchener;436642;43.46;-80.5
MEX;MEX-EMEX;Ixtapaluca;436366;19.32;-98.88
SOM;ALL;Hargeysa;436232;9.56;44.06
IND;ALL;Jhānsi;435355;25.45;78.56
IND;ALL;Tiruppur;435313;11.09;77.35
IND;ALL;Bokāro;434831;23.78;85.96
SAU;ALL;Buraydah;434538;26.37;43.97
BRA;ALL;Vila Velha;434108;-20.32;-40.28
ESP;ALL;Murcia;432133;37.98;-1.13
IND;ALL;Mangaluru;431976;12.88;74.84
CHN;ALL;Luqiao;431964;28.58;121.38
CHN;ALL;Sanmenxia;431636;34.83;111.08
VNM;ALL;Biên Hòa;429898;10.95;106.82
EGY;ALL;Tanta;429632;30.79;31
KAZ;ALL;Qaragandy;429202;49.88;73.16
CHN;ALL;Xuanhua;428591;40.6;115.03
GHA;ALL;Tamale;428160;9.4;-0.84
USA;CA;Fresno city;427652;36.781549;-119.792113
UZB;ALL;Namaņgan;426854;41;71.67
CHN;ALL;Dezhou;426820;37.45;116.3
PAN;ALL;Panamá;426009;8.97;-79.53
USA;VA;Virginia Beach city;425257;36.834498;-76.087179
CHN;ALL;Yangjiang;424724;21.85;111.97
NGA;ALL;Gboko;424283;7.33;9
SVK;ALL;Bratislava;424116;48.16;17.13
CHN;ALL;Yangquan;423716;37.87;113.57
IRN;ALL;Ardabīl;423435;38.25;48.3
USA;PR;San Juan zona urbana;421958;18.411362;-66.059861
RUS;ALL;Kaliningrad;421840;54.71;20.5
IND;ALL;Nellur;421710;14.46;79.98
SDN;ALL;al-Ubayyid̨;420929;13.19;30.22
GBR;ENG;Sheffield;419978;53.39;-1.48
IND;ALL;Kollam;419722;8.89;76.58
MAR;ALL;Oujda;419154;34.69;-1.91
IND;ALL;Ahmadnagar;418600;19.1;74.74
COL;ALL;Santa Marta;418313;11.26;-74.19
CHN;ALL;Shiyan;417083;32.57;110.78
BRA;ALL;Caxias do Sul;416487;-29.18;-51.17
USA;GA;Atlanta city;416474;33.759506;-84.403176
PHL;ALL;Iloilo;416467;10.69;122.55
MEX;MEX-NL;Apodaca;416298;25.77;-100.18
PAK;ALL;Lārkāna;416261;27.56;68.21
BRA;ALL;Diadema;416092;-23.69;-46.61
NGA;ALL;Owerri;416024;5.49;7.04
IDN;ALL;Denpasar;415745;-8.65;115.22
SDN;ALL;Kūstī;415593;13.17;32.66
RUS;ALL;Bryansk;415345;53.26;34.42
VEN;ALL;Turmero;414930;10.22;-67.48
BRA;ALL;Santos;414287;-23.95;-46.33
BRA;ALL;Mauá;412006;-23.66;-46.46
IRQ;ALL;Ba'qūbah;411867;33.74;44.65
RUS;ALL;Magnitogorsk;410890;53.42;58.97
PRI;ALL;San Juan;409262;18.44;-66.13
CHN;ALL;Weifang;409230;36.72;119.1
NZL;ALL;Auckland;408874;-36.85;174.76
GNB;ALL;Bissau;408627;11.87;-15.6
BRA;ALL;São José do Rio Preto;407402;-20.8;-49.39
POL;ALL;Szczecin;407037;53.43;14.53
USA;CA;Sacramento city;407018;38.555605;-121.468926
MYS;ALL;Seremban;405674;2.71;101.95
CHN;ALL;Anshun;405534;26.25;105.93
RUS;ALL;Ivanovo;405072;57.01;40.99
CHN;ALL;Aksu;404322;41.15;80.25
BRA;ALL;Campos;403804;-21.75;-41.34
RUS;ALL;Tver;403715;56.86;35.89
RUS;ALL;Kursk;402723;51.73;36.19
IND;ALL;Pānihāti;402502;22.69;88.37
CHN;ALL;Zhoukou;400961;33.64;114.63
KOR;ALL;Kimhae;400547;35.19;128.93
ALB;ALL;Tirana;399999;41.33;19.82
USA;CA;Oakland city;399484;37.795227;-122.228111
MYS;ALL;Kajang-Sungai Chua;398324;2.98;101.77
KAZ;ALL;Taraz;398233;42.9;71.37
BGD;ALL;Ţungī;398188;23.88;90.4
QAT;ALL;Doha;398017;25.3;51.51
CHN;ALL;Sucheng;397981;33.95;118.29
CHN;ALL;Dongguan;397858;23.05;113.73
TZA;ALL;Arusha;397737;-3.36;36.67
BRA;ALL;Macapá;397619;0.04;-51.05
ARG;ALL;Resistencia;397215;-27.46;-58.99
PAK;ALL;Shekhūpura;397186;31.72;73.98
SLV;ALL;Soyapango;396707;13.7;-89.16
USA;AZ;Mesa city;396375;33.411199;-111.746438
GBR;ENG;Manchester;396293;53.48;-2.25
CHN;ALL;Jincheng;395709;35.5;112.83
MYS;ALL;Kuantan;395241;3.82;103.34
EGY;ALL;Asyut;394961;27.19;31.18
EST;ALL;Tallinn;394898;59.44;24.74
TUR;ALL;Adapazarı;394835;40.79;30.41
BRA;ALL;Itaquaquecetuba;394711;-23.47;-46.35
CMR;ALL;Maroua;394642;10.58;14.33
MEX;MEX-EMEX;Xico;393758;19.27;-98.94
ZAF;ALL;Krugersdorp;393473;-26.09;27.77
USA;OK;Tulsa city;393049;36.131294;-95.937332
CHN;ALL;Dongchang;392373;41.73;125.93
IDN;ALL;Ambon;392199;-3.7;128.16
NZL;ALL;Manukau;390443;-37;174.88
IDN;ALL;Pacet;390029;-6.75;107.05
COL;ALL;Villavicencio;390013;4.15;-73.64
USA;NE;Omaha city;390007;41.260482;-96.012990
IND;ALL;Brahmapur;389830;19.32;84.8
IND;ALL;Lātūr;389573;18.41;76.58
PHL;ALL;San Jose del Monte;389353;14.81;121.05
ISR;ALL;Tel Aviv-Yafo;389344;32.07;34.77
KAZ;ALL;Astana;389189;51.17;71.47
IND;ALL;Ambattur;389104;13.11;80.17
BGD;ALL;Silhaţ;388588;24.9;91.87
MAR;ALL;Kenitra;388375;34.27;-6.58
IND;ALL;Kukatpalle;387839;17.49;78.41
KOR;ALL;Chŏnan;386948;36.81;127.16
VEN;ALL;Barinas;386645;8.6;-70.25
IND;ALL;Dhule;386636;20.9;74.77
IRN;ALL;Bandar-e 'Abbās;386351;27.25;56.25
CHN;ALL;Zhaoqing;385770;23.05;112.45
IND;ALL;Dasarahalli;385242;13.01;77.49
NGA;ALL;Jalingo;384993;8.9;11.36
THA;ALL;Nonthaburi;384555;13.8;100.18
COL;ALL;Pereira;383729;4.81;-75.68
BRA;ALL;Carapicuíba;382965;-23.52;-46.84
ZAF;ALL;Botshabelo;382903;-29.23;26.73
USA;MN;Minneapolis city;382618;44.964465;-93.268198
IDN;ALL;Cimahi;382069;-6.83;107.48
IDN;ALL;Tambun;381995;-6.27;107.05
DEU;ALL;Bochum;381906;51.48;7.2
BGD;ALL;Maimansingh;381867;24.75;90.39
CHN;ALL;Putian;381760;25.43;119.02
PER;ALL;Piura;381337;-5.19;-80.63
MEX;MEX-TAB;Villahermosa;380182;17.98;-92.92
PHL;ALL;Mandaue;380138;10.33;123.93
IND;ALL;Lalbahadur Nagar;380091;17.43;78.5
ESP;ALL;Palma;378888;39.57;2.65
TUR;ALL;Kahramanmaraş;378801;37.61;36.94
PER;ALL;Iquitos;378525;-3.75;-73.2
COL;ALL;Bello;377300;6.33;-75.57
IND;ALL;Bhāgalpur;376947;25.26;86.98
ESP;ALL;Las Palmas;376754;28.1;-15.43
ITA;ALL;Florence;376714;43.78;11.24
IND;ALL;Muzaffarnagar;376315;29.48;77.69
NGA;ALL;Oyo;376083;7.85;3.93
MEX;MEX-TAM;Nuevo Laredo;375467;27.48;-99.51
IRN;ALL;Eslāmshahr;375223;35.54;51.2
BRA;ALL;Olinda;375086;-8;-34.85
GBR;ENG;Bristol;375083;51.46;-2.6
RUS;ALL;Nizhniy Tagil;374937;57.92;59.97
TUR;ALL;Malatya;373009;38.36;38.31
ITA;ALL;Bologna;372380;44.5;11.34
KOR;ALL;Yŏsu;372025;34.74;127.74
USA;HI;Honolulu CDP;371657;21.308950;-157.826182
CHN;ALL;Chifeng;371338;42.27;118.95
CHN;ALL;Pingxiang;370423;27.62;113.85
CHN;ALL;Shangrao;369817;28.47;117.97
MEX;MEX-SIN;Mazatlán;369622;23.22;-106.42
CHN;ALL;Anqing;369577;30.5;117.05
MEX;MEX-NL;General Escobedo;369399;25.82;-100.33
NZL;ALL;Christchurch;368975;-43.53;172.64
GMB;ALL;Serre Kunda;368110;13.45;-16.68
IDN;ALL;Percut Sei Tuan;367562;3.68;98.75
UKR;ALL;Makiyivka;367403;48.03;37.97
BLR;ALL;Mahiljow;367081;53.9;30.33
CZE;ALL;Brno;365440;49.2;16.61
UZB;ALL;Andijon;364997;40.79;72.34
BRA;ALL;Montes Claros;364981;-16.72;-43.86
IND;ALL;Bhīlwāra;364693;25.35;74.63
ARG;ALL;Santiago del Estero;364585;-27.8;-64.28
UKR;ALL;Vinnytsya;363213;49.23;28.48
IND;ALL;Mathura;362971;27.5;77.68
BRA;ALL;Piracicaba;362714;-22.71;-47.64
BRA;ALL;Campina Grande;362621;-7.23;-35.88
USA;FL;Miami city;362470;25.787676;-80.224145
PHL;ALL;Batangas;361126;13.78;121.02
RUS;ALL;Stavropol;360996;45.04;41.97
COL;ALL;Manizales;360927;5.06;-75.52
USA;CO;Colorado Springs city;360890;38.863443;-104.791914
NGA;ALL;Ijebu Ode;360658;6.82;3.92
BDI;ALL;Bujumbura;360278;-3.37;29.35
IRN;ALL;Qazvīn;360266;36.27;50
SYR;ALL;al-Lāđiqīyah;360119;35.54;35.78
POL;ALL;Bydgoszcz;360088;53.12;18.01
NGA;ALL;Sokoto;359523;13.06;5.24
PAN;ALL;San Miguelito;358549;9.03;-79.5
IND;ALL;Tumkūr;358517;13.34;77.1
CAN;ON;London;358297;42.97;-81.24
BRA;ALL;Bauru;358222;-22.33;-49.08
PAK;ALL;Jhang;357826;31.28;72.32
AGO;ALL;Cabinda;357576;-5.56;12.19
DEU;ALL;Wuppertal;357400;51.26;7.18
SDN;ALL;Wad Madanī;356978;14.4;33.51
IND;ALL;Shimoga;356480;13.93;75.57
IDN;ALL;Bengkulu;356479;-3.8;102.25
PRK;ALL;Hŭngnam;356239;39.83;127.62
HTI;ALL;Delmas;356181;18.55;-72.28
IDN;ALL;Samarinda;356034;-0.5;117.15
MEX;MEX-HGO;Pachuca;355758;20.12;-98.76
LTU;ALL;Kaunas;355469;54.9;23.91
MEX;MEX-EMEX;Coacalco;355219;19.63;-99.11
ESP;ALL;Bilbao;354928;43.25;-2.93
KAZ;ALL;Pavlodar;354809;52.3;76.95
ARG;ALL;Corrientes;354503;-27.49;-58.81
IND;ALL;Muzaffarpur;354416;26.13;85.38
MYS;ALL;Tawau;354243;4.26;117.88
SDN;ALL;al-Qad̨ārif;353686;14.04;35.38
UZB;ALL;Samarkand;353347;39.66;66.95
CHE;ALL;Zürich;353067;47.38;8.54
CHN;ALL;Daipo;352623;22.45;114.16
MEX;MEX-MOR;Cuernavaca;351828;18.92;-99.25
PHL;ALL;Iligan;351568;8.17;124.22
POL;ALL;Lublin;351568;51.24;22.57
IRN;ALL;Zanjān;351515;36.67;48.5
GRC;ALL;Thessaloníki;351367;40.64;22.94
PHL;ALL;Cainta;351244;14.58;121.12
IND;ALL;Qutubullapur;351033;17.43;78.47
IND;ALL;Bellary;350893;15.14;76.91
MEX;MEX-GTO;Irapuato;350309;20.68;-101.36
IND;ALL;Patiāla;350189;30.32;76.39
AFG;ALL;Herāt;350154;34.35;62.18
NGA;ALL;Asaba;350128;6.2;6.72
BRA;ALL;Cariacica;349306;-20.23;-40.37
ZWE;ALL;Chitungwiza;349196;-18;31.1
BRA;ALL;Moji das Cruzes;349113;-23.52;-46.21
BRA;ALL;Anápolis;349042;-16.32;-48.96
CHN;ALL;Zhongshan;348871;22.53;113.35
RUS;ALL;Belgorod;348536;50.61;36.59
USA;MO;St. Louis city;348189;38.627718;-90.242806
PRK;ALL;Kaesŏng;348176;37.97;126.56
NGA;ALL;Ado;348059;7.63;5.22
ARE;ALL;Ajmān;347733;25.42;55.43
CMR;ALL;Bafoussam;347517;5.49;10.41
PER;ALL;Cusco;347496;-13.52;-71.99
BGR;ALL;Plovdiv;347260;42.15;24.75
AFG;ALL;Qandahār;347253;31.61;65.69
IND;ALL;Kāmārhāti;347080;22.67;88.37
RUS;ALL;Arkhangelsk;346533;64.57;40.53
BRA;ALL;Canoas;345639;-29.92;-51.18
VEN;ALL;San Cristóbal;345616;7.77;-72.25
CHN;ALL;Yanji;345283;42.88;129.52
QAT;ALL;ar-Rayyān;344812;25.32;51.37
KAZ;ALL;Öskemen;344421;49.97;82.61
USA;KS;Wichita city;344284;37.688848;-97.336226
RUS;ALL;Ulan-Ude;343881;51.83;107.62
CRI;ALL;San José;343481;9.93;-84.08
CHN;ALL;Tieling;342473;42.3;123.82
RUS;ALL;Vladimir;342287;56.14;40.4
CHN;ALL;Mianchang;342051;23.26;116.59
MAR;ALL;Tetouan;341689;35.58;-5.37
BGD;ALL;Narsingdi;341479;23.92;90.72
BLR;ALL;Vicebsk;341462;55.19;30.18
BRA;ALL;Guarujá;341388;-24;-46.27
BRA;ALL;São Vicente;341339;-23.96;-46.39
IND;ALL;Rohtak;340966;28.9;76.58
UKR;ALL;Simferopol';340877;44.95;34.1
TUR;ALL;Van;340858;38.49;43.4
NGA;ALL;Ilesha;340808;7.63;4.74
CHN;ALL;Qitaihe;340786;45.8;130.85
KOR;ALL;Kwangmyŏng;340579;37.45;126.84
CHN;ALL;Suizhou;340102;31.71;113.36
VEN;ALL;Puerto la Cruz;340052;10.17;-64.68
UKR;ALL;Sevastopol';339160;44.6;33.53
IRN;ALL;Khorramābād;338480;33.48;48.35
BRA;ALL;Jundiaí;338454;-23.2;-46.88
EGY;ALL;Ismailia;338429;30.59;32.26
BRA;ALL;Pelotas;338003;-31.76;-52.34
USA;CA;Santa Ana city;337977;33.740717;-117.881408
PRK;ALL;Wŏnsan;337463;39.16;127.43
PHL;ALL;Butuan;337380;8.93;125.52
BRA;ALL;Viamão;337313;-30.09;-50.98
BRA;ALL;Maringá;336925;-23.41;-51.93
IND;ALL;Chandrapur;336730;19.96;79.3
CHL;ALL;Antofagasta;336438;-23.65;-70.39
CHN;ALL;Baicheng;335701;45.62;122.82
IND;ALL;Shāhjahānpur;334671;27.88;79.9
USA;PA;Pittsburgh city;334563;40.441419;-79.977292
FRA;ALL;Nice;334338;43.7;7.27
TUR;ALL;Denizli;333513;37.78;29.08
USA;TX;Arlington city;332969;32.705033;-97.122839
CHN;ALL;Beihai;332482;21.48;109.1
KOR;ALL;Cheju;332419;33.51;126.52
PHL;ALL;Cabanatuan;332287;15.5;120.97
USA;OH;Cincinnati city;331285;39.136160;-84.503088
ARG;ALL;Posadas;331053;-27.4;-55.91
BGD;ALL;Komīllā;330796;23.46;91.17
IND;ALL;Thrissūr;330267;10.52;76.21
PAK;ALL;Mardān;330234;34.2;72.04
RUS;ALL;Sochi;329886;43.6;39.73
ZAF;ALL;Brakpan;329847;-26.29;28.37
AUS;ALL;Canberra;329200;-35.31;149.13
BRA;ALL;Porto Velho;329145;-8.76;-63.91
PAK;ALL;Rahīm Yār Khān;328903;28.42;70.3
BRA;ALL;Vitória;328746;-20.31;-40.31
IND;ALL;Hisar;328710;29.17;75.72
PRK;ALL;Chŏngjin;328493;41.78;129.78
IND;ALL;Fīrozābād;328313;27.15;78.39
IDN;ALL;Batam;328109;1.03;103.92
USA;CA;Anaheim city;328014;33.836165;-117.889769
TUR;ALL;Erzurum;327977;39.91;41.29
EGY;ALL;El Faiyum;327917;29.31;30.84
BRA;ALL;Blumenau;327684;-26.92;-49.09
RUS;ALL;Kaluga;327601;54.54;36.27
BRA;ALL;Franca;327344;-20.53;-47.39
IDN;ALL;Kupang;326703;-10.17;123.57
ESP;ALL;Córdoba;326150;37.88;-4.77
BRA;ALL;Foz do Iguaçu;326022;-25.55;-54.58
ARG;ALL;Jujuy;325971;-24.19;-65.3
COL;ALL;Pasto;325945;1.21;-77.28
IDN;ALL;Mataram;325517;-8.58;116.13
BRA;ALL;Limeira;325343;-22.55;-47.4
AGO;ALL;Huambo;325207;-12.77;15.74
DEU;ALL;Bielefeld;324828;52.03;8.53
VEN;ALL;Cabimas;324747;10.43;-71.45
BLR;ALL;Hrodna;324708;53.67;23.83
BRA;ALL;Suzano;324707;-23.55;-46.31
IND;ALL;Bally;324643;22.65;88.35
BGR;ALL;Varna;324379;43.21;27.9
RUS;ALL;Kurgan;323974;55.45;65.33
COL;ALL;Valledupar;323721;10.48;-73.25
PHL;ALL;Lipa;323511;13.95;121.17
KOR;ALL;Kunpo;323290;37.35;126.95
PER;ALL;Chimbote;323227;-9.07;-78.6
RUS;ALL;Oryol;323063;52.97;36.08
IND;ALL;Nizāmābād;322241;18.68;78.1
MEX;MEX-GTO;Celaya;322232;20.52;-100.82
CHN;ALL;Chuzhou;321657;32.3;118.3
TUR;ALL;Elazığ;321644;38.68;39.23
PRY;ALL;Ciudad del Este;320782;-25.42;-54.63
IDN;ALL;Palu;320646;-0.9;119.84
PAK;ALL;Gujrāt;320440;32.58;74.07
AZE;ALL;Gəncə;320348;40.68;46.35
PER;ALL;Huancayo;319978;-12.07;-75.21
CHN;ALL;Tongling;318482;30.95;117.78
IRN;ALL;Sanandaj;318482;35.3;47.02
VEN;ALL;Cumaná;318264;10.45;-64.18
ESP;ALL;Valladolid;317957;41.65;-4.74
IND;ALL;Pānīpat;317514;29.39;76.96
ECU;ALL;Cuenca;317337;-2.9;-79.01
PHL;ALL;San Pedro;317204;14.36;121.06
KOR;ALL;Masan;316344;35.22;128.58
IND;ALL;Kulti;316275;23.72;86.89
BGD;ALL;Rangpūr;315865;25.74;89.25
BRA;ALL;Caucaia;315743;-3.74;-38.67
DEU;ALL;Bonn;315742;50.73;7.1
IDN;ALL;Jember;315147;-8.17;113.69
RUS;ALL;Smolensk;314901;54.78;32.04
ESP;ALL;Alacant;314704;38.35;-0.48
IND;ALL;Parbhani;314131;19.27;76.76
RUS;ALL;Murmansk;313968;68.96;33.08
RUS;ALL;Vladikavkaz;313771;43.04;44.68
IND;ALL;Bilāspur;313759;22.09;82.15
USA;OH;Toledo city;313619;41.665682;-83.575337
NGA;ALL;Calabar;313606;4.96;8.33
UKR;ALL;Kherson;313587;46.63;32.6
BRA;ALL;Ponta Grossa;313438;-25.09;-50.16
MEX;MEX-TAM;Tampico;313356;22.22;-97.85
PHL;ALL;Taytay;312856;14.57;121.13
IND;ALL;Barddhamān;312841;23.24;87.86
BRA;ALL;Paulista;312836;-7.9;-34.91
KAZ;ALL;Semey;312136;50.43;80.27
CZE;ALL;Ostrava;311963;49.83;18.27
CAN;ON;Saint Catharines-Niagara;311788;43.18;-79.24
GBR;WLS;Cardiff;311481;51.48;-3.18
IDN;ALL;Cilegon;311220;-5.94;106
CHN;ALL;Jinxi;310975;40.75;120.83
CAN;BC;Victoria;310887;48.43;-123.37
POL;ALL;Katowice;310783;50.26;19.02
SAU;ALL;al-Hufūf;310745;25.35;49.58
LBY;ALL;al-;310329;32.53;13.02
CHN;ALL;Dongying;310275;37.5;118.52
CHN;ALL;Jingdezhen;310069;29.27;117.18
COL;ALL;Neiva;310033;2.94;-75.27
COL;ALL;Buenaventura;309890;3.89;-77.04
SAU;ALL;al-Mubarraz;309700;25.43;49.57
CUB;ALL;Camagüey;309481;21.4;-77.91
COD;ALL;Tshikapa;308686;-6.41;20.77
EGY;ALL;El Zagazig;308637;30.58;31.5
RUS;ALL;Volzhskiy;307970;48.79;44.77
DEU;ALL;Mannheim;307894;49.5;8.47
PHL;ALL;Mabalacat;307501;15.22;120.57
RUS;ALL;Cherepovets;307482;59.13;37.9
BLR;ALL;Brèst;307408;52.12;23.68
PAK;ALL;Kasūr;307391;31.12;74.45
BRA;ALL;Rio Branco;307389;-9.98;-67.82
NGA;ALL;Minna;306803;9.62;6.55
IND;ALL;Singrauli;306643;23.84;82.27
IND;ALL;Rāmpur;306294;28.82;79.02
COL;ALL;Montería;306135;8.76;-75.89
CHN;ALL;Huizhou;306130;23.08;114.4
ITA;ALL;Bari;305843;41.12;16.87
PHL;ALL;Baguio;305831;16.43;120.57
UKR;ALL;Poltava;305752;49.58;34.57
ETH;ALL;Dirē Dawa;304920;9.59;41.86
IND;ALL;Kākināda;304690;16.96;82.24
PHL;ALL;Angeles;304582;15.15;120.55
USA;FL;Tampa city;303447;27.970898;-82.464640
IND;ALL;Darbhanga;303070;26.16;85.88
ROU;ALL;Cluj-Napoca;302644;46.78;23.59
SAU;ALL;H̨ā'il;301982;27.53;41.7
RUS;ALL;Chita;301889;52.05;113.46
PNG;ALL;Port Moresby;301817;-9.48;147.18
IND;ALL;Alwar;301712;27.56;76.6
ROU;ALL;Constanţa;301107;44.18;28.63
IRQ;ALL;al-Fallūjah;300992;33.35;43.78
PHL;ALL;Lapu-Lapu;300394;10.33;123.96
CHN;ALL;Kashi;300379;39.48;75.97
ZAF;ALL;Richards Bay;300161;-28.8;32.09
IND;ALL;Rājamahendri;299435;17.02;81.79
UKR;ALL;Chernihiv;299346;51.5;31.3
KOR;ALL;Chinju;298447;35.19;128.08
MAR;ALL;Safi;298361;32.32;-9.24
SAU;ALL;Najrān;297638;17.5;44.13
ROU;ALL;Craiova;297528;44.33;23.82
TUR;ALL;Batman;297385;37.89;41.13
VNM;ALL;Huế;297265;16.48;107.58
ROU;ALL;Galaţi;297000;45.44;28.04
NAM;ALL;Windhoek;296366;-22.56;17.09
ZAF;ALL;Emalahleni;296211;-25.86;29.22
TZA;ALL;Mbeya;296006;-8.89;33.43
POL;ALL;Białystok;295502;53.14;23.16
VNM;ALL;Nha Trang;295439;12.25;109.19
RUS;ALL;Surgut;295394;61.25;73.42
IND;ALL;Nalasopara;295323;19.43;72.78
IDN;ALL;Sukabumi;295030;-6.92;106.92
TUR;ALL;Manisa;294482;38.63;27.43
TUR;ALL;Sivas;294468;39.75;37.02
RUS;ALL;Saransk;294165;54.18;45.18
ROU;ALL;Iaşi;294016;47.17;27.57
BRA;ALL;Praia Grande;293830;-24;-46.4
TUR;ALL;Sultanbeyli;293651;40.92;29.3
ESP;ALL;Vigo;293646;42.22;-8.71
UKR;ALL;Cherkasy;293341;49.43;32.07
IND;ALL;Etāwah;293285;26.78;79.01
GBR;ENG;Leicester;293153;52.64;-1.13
ITA;ALL;Catania;293093;37.5;15.08
DZA;ALL;Bātnah;292943;35.57;6.17
USA;NY;Buffalo city;292648;42.904657;-78.849405
CHN;ALL;Luzhou;292620;28.88;105.38
VEN;ALL;Mérida;292411;8.4;-71.13
JOR;ALL;Irbid;292040;32.55;35.85
BRA;ALL;Barueri;291931;-23.49;-46.86
JOR;ALL;ar-Ruşşayfah;291702;32.02;36.02
AUS;ALL;Newcastle;291117;-32.92;151.75
NLD;ALL;Utrecht;290874;52.1;5.11
ROU;ALL;Timişoara;290786;45.76;21.23
ARG;ALL;Bahía Blanca;290723;-38.72;-62.28
GHA;ALL;Takoradi;290287;4.89;-1.76
IND;ALL;Karnūl;290157;15.83;78.03
MEX;MEX-NAY;Tepic;290103;21.5;-104.89
CHL;ALL;San Bernardo;289925;-33.6;-70.7
SAU;ALL;al-Jubayl;289897;27.01;49.65
CHL;ALL;Viña del Mar;289799;-33.01;-71.55
CUB;ALL;Holguín;289439;20.89;-76.25
KOR;ALL;Kumi;288558;36.13;128.35
CHN;ALL;Zhumadian;287680;32.97;114.05
IND;ALL;Dewās;287495;22.97;76.05
DEU;ALL;Karlsruhe;287338;49;8.4
USA;MN;St. Paul city;287151;44.954365;-93.114115
IND;ALL;Āīzawl;287021;23.71;92.71
IND;ALL;Ichalkaranji;287015;16.69;74.46
PRK;ALL;Sinŭiju;286555;40.1;124.41
OMN;ALL;as-Sīb;286121;23.67;58.19
KOR;ALL;Pyŏngtaek;285589;36.98;127.1
NGA;ALL;Bauchi;285520;10.31;9.84
KAZ;ALL;Aqtöbe;285507;50.28;57.17
IND;ALL;Naihāti;285448;22.91;88.43
IRQ;ALL;al-Kūt;285413;32.5;45.83
IRQ;ALL;ar-Ramādī;285373;33.42;43.3
VEN;ALL;Santa Teresa;285187;10.23;-66.66
RUS;ALL;Vologda;285181;59.22;39.9
CAN;NS;Halifax;285127;44.67;-63.61
MYS;ALL;Kuala Terengganu;284825;5.33;103.14
KOR;ALL;Iksan;284698;35.94;126.95
IND;ALL;Satna;283920;24.58;80.83
CAN;ON;Windsor;283854;42.3;-83.03
IRN;ALL;Gorgān;283809;36.83;54.48
IND;ALL;Jālna;283618;19.85;75.88
BRA;ALL;Santa Luzia;283356;-19.78;-43.87
IDN;ALL;Cibadak;282824;-6.89;106.78
CMR;ALL;Ngaoundéré;282539;7.32;13.58
MEX;MEX-TAM;Victoria;282178;23.73;-99.13
GBR;ENG;Bradford;281699;53.8;-1.75
BRA;ALL;Cascavel;281572;-24.96;-53.46
COL;ALL;Armenia;281437;4.53;-75.69
IND;ALL;Mau;281431;25.96;83.56
BOL;ALL;Sucre;281240;-19.06;-65.26
RUS;ALL;Tambov;280913;52.73;41.43
CAN;ON;Oshawa;280710;43.89;-78.86
FRA;ALL;Nantes;280560;47.23;-1.57
TUN;ALL;Şafāqis;280370;34.75;10.72
BRA;ALL;Várzea Grande;279815;-15.65;-56.14
BRA;ALL;Petrópolis;279761;-22.51;-43.2
ROU;ALL;Braşov;279758;45.66;25.61
IDN;ALL;Kendari;279705;-3.97;122.59
PHL;ALL;San Fernando;279420;15.03;120.69
AZE;ALL;Sumqayıt;279086;40.59;49.64
VEN;ALL;Baruta;278727;10.43;-66.88
NZL;ALL;North Shore;278678;-36.8;174.75
BRA;ALL;Uberaba;278260;-19.76;-47.94
IDN;ALL;Banda Aceh;278194;5.55;95.32
KOR;ALL;Pohang;278139;36.03;129.37
FRA;ALL;Strasbourg;278026;48.58;7.76
MEX;MEX-EMEX;Los Reyes;278012;19.36;-98.98
PER;ALL;Sullana;277507;-4.89;-80.68
USA;TX;Corpus Christi city;277454;27.742857;-97.401927
AFG;ALL;Mazār-e Šarīf;277302;36.7;67.1
IND;ALL;Durg;276849;21.2;81.28
UKR;ALL;Sumy;276749;50.92;34.78
MYS;ALL;Kota Bahru;276592;6.12;102.24
DEU;ALL;Wiesbaden;276464;50.08;8.23
USA;CO;Aurora city;276393;39.695887;-104.808101
BRA;ALL;Lauro de Freitas;276317;-12.91;-38.35
PHL;ALL;Binangonan;276224;14.48;121.19
IND;ALL;Sonīpat;276121;28.99;77.01
USA;NC;Raleigh city;276093;35.818835;-78.644590
ARG;ALL;Paraná;275898;-31.74;-60.52
ESP;ALL;Gijón;275618;43.53;-5.67
SDN;ALL;al-Fāšir;275515;13.63;25.35
NGA;ALL;Uyo;275435;5.03;7.93
MEX;MEX-BC;Ensenada;275353;31.87;-116.62
UKR;ALL;Zhytomyr;275015;50.25;28.67
TUR;ALL;Esenyurt;274986;41.03;28.67
BRA;ALL;Vitória da Conquista;274663;-14.85;-40.84
GBR;ENG;Coventry;274330;52.42;-1.5
CHN;ALL;Linyi;273928;35.08;118.33
USA;NJ;Newark city;273546;40.735201;-74.184938
EGY;ALL;Aswan;273450;24.08;32.92
DEU;ALL;Münster;273295;51.96;7.62
RUS;ALL;Kostroma;272947;57.77;40.93
SYR;ALL;Dayr az-Zawr;272929;35.33;40.13
PRY;ALL;Luque;272661;-25.27;-57.49
PHL;ALL;Tarlac;272377;15.48;120.58
MEX;MEX-NL;Santa Catarina;272348;25.67;-100.47
SAU;ALL;H̨afar al-Bāţin;272101;28.43;45.96
IRN;ALL;Sārī;271937;36.55;53.1
PRY;ALL;San Lorenzo;271064;-25.34;-57.52
KEN;ALL;Nakuru;271027;-0.28;36.07
CHN;ALL;Yining;270991;43.9;81.35
RUS;ALL;Nalchik;270933;43.5;43.62
BRA;ALL;Taubaté;270819;-23.02;-45.56
UKR;ALL;Horlivka;270526;48.3;38.05
RUS;ALL;Komsomolsk-na-Amure;270114;50.56;137
IND;ALL;Tirupati;270101;13.63;79.41
TUN;ALL;Aryānah;269842;36.88;10.18
PER;ALL;Pucallpa;269348;-8.39;-74.53
BRA;ALL;Novo Hamburgo;269325;-29.71;-51.14
BRA;ALL;São José dos Pinhais;269246;-25.57;-49.18
CHN;ALL;Yingcheng;269050;30.94;113.57
CHL;ALL;Valparaíso;269041;-33.04;-71.64
IDN;ALL;Majalaya;268574;-7.05;107.76
CHN;ALL;Wuzhou;268392;23.48;111.32
IND;ALL;Hāpur;268381;28.73;77.77
MEX;MEX-OAX;Oaxaca;268206;17.07;-96.72
PRY;ALL;Capiatá;268107;-25.35;-57.42
CHN;ALL;Quanwan;267985;22.37;114.11
CHN;ALL;Mianyang;267536;31.47;104.77
CHN;ALL;Jining;267480;41.04;113.09
IND;ALL;Ozhukarai;267454;11.94;79.77
IND;ALL;Baranagar;266814;22.64;88.37
ITA;ALL;Venezia;266667;45.43;12.33
EGY;ALL;Damietta;266627;31.42;31.82
RUS;ALL;Sterlitamak;266554;53.63;55.95
ZAF;ALL;Uitenhage;265992;-33.76;25.39
SEN;ALL;Thiès;265683;14.81;-16.93
DEU;ALL;Gelsenkirchen;265431;51.51;7.11
CHN;ALL;Tongliao;265384;43.62;122.27
VNM;ALL;Cần Thơ;265308;10.03;105.78
CMR;ALL;Bertoua;265284;4.58;13.68
BRA;ALL;Santa Maria;265253;-29.69;-53.83
MEX;MEX-EMEX;Buenavista;265071;19.55;-99.05
MEX;MEX-EMEX;Nicolás Romero;264977;19.62;-99.31
MMR;ALL;Bago;264849;17.33;96.5
MEX;MEX-PUE;Tehuacán;264756;18.45;-97.38
RUS;ALL;Petrozavodsk;264741;61.82;34.33
BRA;ALL;Boa Vista;264642;2.83;-60.66
IDN;ALL;Tasikmalaya;264331;-7.32;108.21
ISR;ALL;Haifa;264236;32.82;34.99
BGD;ALL;Baŗīsāl;263807;22.7;90.37
RUS;ALL;Taganrog;263248;47.22;38.91
GBR;NIR;Belfast;262786;54.6;-5.93
ITA;ALL;Verona;262781;45.44;10.99
BRA;ALL;Governador Valadares;262720;-18.87;-41.97
IND;ALL;Bathinda;262679;30.17;74.97
DEU;ALL;Augsburg;262363;48.36;10.89
IDN;ALL;Pekalongan;262351;-6.88;109.66
ZAF;ALL;Verwoerdburg;262282;-25.83;28.2
IND;ALL;Avadi;262158;13.12;80.11
SWE;ALL;Malmö;261890;55.61;13.02
MEX;MEX-SON;Obregón;261367;27.48;-109.93
IDN;ALL;Sumedang;261150;-6.84;107.92
GBR;ENG;Kingston upon Hull;260873;53.75;-0.36
TZA;ALL;Morogoro;260836;-6.82;37.66
IND;ALL;Gāndhīnagar;260800;23.3;72.63
USA;KY;Lexington-Fayette;260512;38.029632;-84.494642
DEU;ALL;Mönchengladbach;260471;51.2;6.42
USA;AK;Anchorage municipality;260283;61.191900;-149.762097
BRA;ALL;Gravataí;259879;-29.95;-50.99
KOR;ALL;Mokpo;259837;34.8;126.39
VEN;ALL;Puerto Cabello;259626;10.47;-68.17
DEU;ALL;Aachen;259330;50.77;6.09
TUR;ALL;İzmit;259271;40.77;29.93
CHN;ALL;Ganzhou;258786;25.95;114.93
BRA;ALL;Volta Redonda;258225;-22.51;-44.12
UKR;ALL;Khmel'nyts'kyy;258163;49.42;27
IRN;ALL;Kāshān;257981;33.98;51.58
CHN;ALL;Laohekou;257768;32.39;111.66
IND;ALL;Sāgar;257733;23.85;78.75
IND;ALL;Kochi;257564;10.02;76.22
MMR;ALL;Pathein;257417;16.78;94.73
PAK;ALL;Mingāora;257345;34.78;72.36
BRA;ALL;Sumaré;257317;-22.8;-47.29
MYS;ALL;Miri;257305;4.4;113.97
IRN;ALL;Malārd;257269;35.67;50.99
IND;ALL;Bijāpur;256973;16.83;75.71
CHN;ALL;Hulan Ergi;256843;47.21;123.61
ARG;ALL;Neuquén;256837;-38.95;-68.06
NGA;ALL;Ogbomosho;256466;8.13;4.24
PAK;ALL;Dera Ghāzi Khān;256381;30.06;70.64
USA;KY;Louisville city;256231;38.228870;-85.749534
COL;ALL;Floridablanca;255727;7.06;-73.09
KAZ;ALL;Oral;255489;51;51
GHA;ALL;Ashiaman;255230;5.7;-0.33
IDN;ALL;Binjai;255187;3.6;98.48
USA;CA;Riverside city;255166;33.948065;-117.396127
CHN;ALL;Heze;255127;35.23;115.45
FRA;ALL;Montpellier;255053;43.61;3.87
VEN;ALL;Guarenas;255019;10.47;-66.62
NGA;ALL;Jimeta;254967;9.28;12.45
CHN;ALL;Jiujiang;254614;29.73;115.98
IDN;ALL;Cirebon;254231;-6.71;108.56
GTM;ALL;San Juan Sacatepéquez;254119;14.72;-90.64
PAK;ALL;Nawābshāh;254063;26.24;68.4
RUS;ALL;Bratsk;253617;56.3;101.71
IRN;ALL;Qods;253566;35.73;51.18
IND;ALL;Malkajgiri;253501;17.55;78.59
VEN;ALL;Los Teques;253477;10.42;-67.02
RUS;ALL;Jákutskaj, Yakutsk;252778;62.03;129.73
BRA;ALL;Colombo;252717;-25.29;-49.24
IND;ALL;Bihār;252597;25.21;85.52
VNM;ALL;Rạch Giá;252585;10.02;105.08
IND;ALL;Karīmnagar;252505;18.45;79.13
PAK;ALL;Wāh;252394;33.77;72.75
DOM;ALL;San Pedro de Macorís;251892;18.46;-69.31
IDN;ALL;Purwakarta;251702;-6.55;107.43
CHN;ALL;Suihua;251524;46.63;126.98
IND;ALL;Anantapur;251400;14.7;77.59
IDN;ALL;Rengasdengklok;251289;-6.15;107.28
IND;ALL;Farrukhābād;251170;27.4;79.57
IRQ;ALL;an-Nāşirīyah;251095;31.04;46.26
MYS;ALL;Sungai Petani;250912;5.65;100.48
PHL;ALL;Tagum;250904;7.38;125.81
IDN;ALL;Ciampea;250898;-6.55;106.69
CHN;ALL;Nanyang;250810;33;112.53
ETH;ALL;Nazrēt;250799;8.55;39.27
BRA;ALL;Caruaru;250768;-8.28;-35.98
GBR;ENG;Plymouth;250658;50.38;-4.16
AUT;ALL;Graz;250649;47.08;15.42
POL;ALL;Gdynia;250548;54.52;18.53
BGD;ALL;Jessor;250521;23.17;89.21
BEN;ALL;Porto Novo;250262;6.48;2.63
IND;ALL;Rāmagundam;250169;18.8;79.45
BRA;ALL;Palmas;249983;-10.27;-48.31
RUS;ALL;Krasnokokshaisk, Yoshkar-Ola;249925;56.64;47.87
IND;ALL;Bharatpur;249828;27.23;77.49
IND;ALL;Ratlām;249818;23.35;75.03
IND;ALL;Shrīrāmpur;249705;22.74;88.35
CHN;ALL;Hebi;249547;35.95;114.22
TKM;ALL;Türkmenabat;249402;39.1;63.57
KAZ;ALL;Qostanay;249395;53.22;63.63
DZA;ALL;al-Jilfah;249371;34.68;3.25
BGD;ALL;Bogorā;249024;24.84;89.37
RUS;ALL;Dzerzhinsk;248765;56.24;43.46
UKR;ALL;Rivne;248339;50.62;26.25
IND;ALL;Gangānagar;248240;29.93;73.86
USA;FL;St. Petersburg city;248232;27.782254;-82.667619
CHN;ALL;Rizhao;247815;35.43;119.45
TUR;ALL;Balıkesir;247689;39.65;27.88
CHL;ALL;Temuco;247687;-38.73;-72.58
GUY;ALL;Georgetown;247588;6.79;-58.16
MYS;ALL;Selayang Baru;247505;3.27;101.65
CHN;ALL;Wafangdian;247477;39.62;122
IND;ALL;North Dum Dum;247474;22.64;88.41
GBR;ENG;Stoke-on-Trent;247472;53.01;-2.19
FRA;ALL;Lille;247350;50.64;3.07
GBR;ENG;Wolverhampton;247332;52.59;-2.15
EGY;ALL;Damanhoor;247074;31.04;30.47
IDN;ALL;Cileungsi;247062;-6.4;106.95
USA;CA;Bakersfield city;247057;35.357276;-119.031661
EGY;ALL;Menia;246835;28.09;30.75
VEN;ALL;Coro;246605;11.42;-69.68
MOZ;ALL;Chimoio;246081;-19.12;33.47
RUS;ALL;Shakhty;245670;47.71;40.21
UKR;ALL;Dniprodzerzhyns'k;245604;48.5;34.62
DEU;ALL;Brunswick;245573;52.27;10.51
KOR;ALL;Wŏnju;245550;37.35;127.94
IND;ALL;Rāichūr;245434;16.21;77.35
AGO;ALL;Lubango;245196;-14.91;13.49
RUS;ALL;Orsk;245189;51.21;58.63
UKR;ALL;Kirovohrad;245158;48.5;32.26
IDN;ALL;Parung;245133;-6.42;106.73
DEU;ALL;Chemnitz;244736;50.83;12.92
IDN;ALL;Cibitung;244335;-6.27;107.08
CHN;ALL;Xiantao;243884;30.38;113.45
PAK;ALL;Sāhīwāl;243821;30.67;73.11
USA;CA;Stockton city;243771;37.975623;-121.300868
MEX;MEX-MICH;Uruapan;243559;19.42;-102.07
RUS;ALL;Angarsk;243553;52.57;103.91
ESP;ALL;A Coruña;243530;43.33;-8.42
IND;ALL;Tirūvottiyūr;243455;13.16;80.29
BRA;ALL;Juazeiro do Norte;243414;-7.21;-39.32
PER;ALL;Tacna;243381;-18.02;-70.25
UKR;ALL;Chernivtsi;243156;48.3;25.93
BRA;ALL;Ipatinga;242839;-19.48;-42.52
RUS;ALL;Nizhnevartovsk;242821;60.93;76.57
USA;AL;Birmingham city;242820;33.524755;-86.812740
POL;ALL;Częstochowa;242579;50.81;19.13
ESP;ALL;L'Hospitalet de Llobregat;242424;41.35;2.1
BRA;ALL;Hortolândia;242279;-22.85;-47.26
GBR;ENG;Derby;241844;52.92;-1.5
SAU;ALL;Abhā;241387;18.23;42.5
CHN;ALL;Yibin;241217;28.77;104.57
SAU;ALL;Yanbu;241081;24.09;38.05
CHN;ALL;Huanggang;240971;23.68;117
ECU;ALL;Machala;240935;-3.26;-79.96
PRT;ALL;Porto;240773;41.15;-8.62
COD;ALL;Bukavu;240751;-2.51;28.84
LSO;ALL;Maseru;240663;-29.31;27.49
PHL;ALL;Santa Rosa;240641;14.31;121.11
BRA;ALL;Embu;240430;-23.64;-46.84
CHN;ALL;Yuci;240351;37.68;112.73
USA;NJ;Jersey City city;240055;40.722102;-74.065385
CHN;ALL;Haibowan;240031;39.66;106.8
PHL;ALL;Imus;240028;14.43;120.94
KEN;ALL;Eldoret;239699;0.52;35.27
IND;ALL;Bommanahalli;239378;13.01;77.63
IND;ALL;Arrah;239304;25.56;84.66
MEX;MEX-DGO;Gómez Palacio;239161;25.57;-103.5
ITA;ALL;Messina;238734;38.19;15.55
CHN;ALL;Linfen;238529;36.08;111.52
FIN;ALL;Espoo;238365;60.21;24.66
IND;ALL;Ulubāria;238358;22.47;88.11
ESP;ALL;Granada;238032;37.17;-3.59
UZB;ALL;Nukus;237969;42.47;59.61
FRA;ALL;Bordeaux;237801;44.84;-0.58
IDN;ALL;Tegal;237475;-6.86;109.13
KOR;ALL;Kunsan;237434;35.99;126.71
BEL;ALL;Gent;236838;51.05;3.72
DEU;ALL;Krefeld;236514;51.33;6.55
IND;ALL;Dhanbad;236389;23.8;86.42
IND;ALL;Nāngloi Jāt;236214;28.68;77.07
DEU;ALL;Kiel;236198;54.32;10.12
CHL;ALL;Rancagua;235853;-34.17;-70.74
COL;ALL;Palmira;235776;3.54;-76.3
UZB;ALL;Buhoro;235517;39.77;64.42
KOR;ALL;Sunchŏn;235484;34.95;127.49
BIH;ALL;Sarajevo;235105;43.85;18.38
BHS;ALL;Nassau;235102;25.06;-77.33
IND;ALL;Imphāl;234958;24.79;93.94
COL;ALL;Sincelejo;234886;9.29;-75.38
TZA;ALL;Tanga;234757;-5.07;39.09
CIV;ALL;Daloa;234700;6.89;-6.45
PLW;ALL;H̱ān Yūnis;234630;31.35;34.29
USA;VA;Norfolk city;234403;36.885747;-76.259900
SVK;ALL;Košice;234379;48.73;21.26
GBR;ENG;Nottingham;234346;52.97;-1.18
BRA;ALL;Jacareí;234188;-23.3;-45.96
ARG;ALL;Formosa;234171;-26.18;-58.18
IDN;ALL;Curug;234133;-6.25;106.55
IND;ALL;Deoli;234114;28.49;77.22
IRN;ALL;Dezfūl;234065;32.38;48.47
ROU;ALL;Ploieşti;233917;44.94;26.03
DEU;ALL;Halle;233797;51.48;11.96
SUR;ALL;Paramaribo;233795;5.85;-55.2
PLW;ALL;Jabaliya;233511;31.53;34.49
PER;ALL;Ica;233378;-14.06;-75.75
DOM;ALL;La Romana;233319;18.43;-68.97
CHN;ALL;Hangu;233286;39.23;117.78
IDN;ALL;Kediri;233163;-7.81;112.01
AUS;ALL;Wollongong;232868;-34.42;150.87
MEX;MEX-VER;Coatzacoalcos;232734;18.14;-94.42
BRA;ALL;Itapevi;232720;-23.55;-46.94
GBR;ENG;Southampton;232717;50.91;-1.41
IND;ALL;Kapra;232687;17.37;78.48
COL;ALL;Popayán;232495;2.42;-76.61
DZA;ALL;Satīf;232424;36.19;5.41
KGZ;ALL;Oş;232374;40.54;72.79
BRA;ALL;Marília;232123;-22.21;-49.95
BRA;ALL;Magé;232086;-22.65;-43.05
IRN;ALL;Varāmīn;231920;35.32;51.65
ISR;ALL;Rishon LeẔiyyon;231904;31.96;34.8
PHL;ALL;Lucena;231879;13.95;121.6
IND;ALL;Bīdar;231668;17.92;77.52
NGA;ALL;Ilobu;231519;7.84;4.48
RUS;ALL;Novorossiysk;231436;44.72;37.77
IND;ALL;Pondicherry;231418;11.94;79.83
IND;ALL;Serilungampalle;231353;17.48;78.33
PAK;ALL;Mīrpur Khās;231278;25.53;69.01
IND;ALL;Sikandarābād;230945;17.47;78.52
BRA;ALL;Taboão da Serra;230762;-23.6;-46.78
PHL;ALL;San Pablo;230560;14.07;121.33
IND;ALL;Mirzāpur;230478;25.16;82.56
IDN;ALL;Lembang;230464;-6.81;107.61
IND;ALL;Karnāl;230454;29.69;76.97
DEU;ALL;Magdeburg;230057;52.13;11.62
IDN;ALL;Loa Janan;229946;-0.59;117.1
IDN;ALL;Leuwiliang;229938;-6.57;106.62
ESP;ALL;Vitoria;229897;42.85;-2.67
UKR;ALL;Kremenchuk;229802;49.07;33.42
LKA;ALL;Dehiwala-Mount Lavinia;229653;6.85;79.87
IND;ALL;Hospet;229642;15.28;76.37
RUS;ALL;Syktyvkar;229575;61.67;50.81
IRN;ALL;Borūjerd;229453;33.92;48.8
PAK;ALL;Okāra;229396;30.81;73.45
CHN;ALL;Tianmen;229365;30.66;113.16
CHN;ALL;Liaocheng;229295;36.43;115.97
ESP;ALL;Santa Cruz de Tenerife;229241;28.47;-16.25
IND;ALL;Rewa;228997;24.53;81.29
RUS;ALL;Nizhnekamsk;228909;55.64;51.82
IRN;ALL;Khomeynīshahr;228803;32.7;51.47
BRA;ALL;Alvorada;228802;-30.02;-51.09
DNK;ALL;Århus;228732;56.15;10.22
BOL;ALL;Oruro;228624;-17.98;-67.12
IND;ALL;Pāli;228433;25.79;73.32
GTM;ALL;Petapa;228382;14.5;-90.57
ECU;ALL;Santo Domingo;228350;-0.25;-79.16
BEN;ALL;Djougou;228314;9.7;1.68
MYS;ALL;Bukit Mertajam;228310;5.37;100.46
PHL;ALL;Puerto Princesa;228298;9.74;118.74
IND;ALL;Raurkela;228189;22.24;84.81
UZB;ALL;Ķarşi;228034;38.87;65.8
PER;ALL;Juliaca;227932;-15.5;-70.14
THA;ALL;Udon Thani;227902;17.41;102.79
USA;LA;Baton Rouge city;227818;30.458090;-91.140229
IRN;ALL;Shahrīār;227413;35.66;51.06
TUR;ALL;Tarsus;227144;36.92;34.9
PHL;ALL;Malolos;227134;14.85;120.81
CIV;ALL;Yamoussoukro;226994;6.82;-5.28
IRQ;ALL;Dahūk;226899;36.85;43.02
BRA;ALL;São José;226741;-27.59;-48.62
ESP;ALL;Badalona;226735;41.45;2.24
LBY;ALL;Tarhūnah;226554;32.43;13.63
USA;FL;Hialeah city;226419;25.860474;-80.293971
IND;ALL;Ni Dilli;226346;28.6;77.22
LAO;ALL;Vientiane;226292;17.97;102.61
IRN;ALL;Ābādān;226157;30.33;48.28
PRK;ALL;Haeju;226064;38.04;125.71
CHN;ALL;Ranghulu;225961;46.65;124.86
CHN;ALL;Changji;225718;44.02;87.32
IND;ALL;Bidhannagar;225703;22.57;88.42
USA;NE;Lincoln city;225581;40.809868;-96.675345
VEN;ALL;El Tigre;225488;8.89;-64.26
KEN;ALL;Kisumu;225462;-0.09;34.75
CHN;ALL;Kuytun;225293;44.44;84.89
BRA;ALL;Presidente Prudente;225273;-22.12;-51.39
BWA;ALL;Gaborone;224990;-24.65;25.91
GIN;ALL;Nzérékoré;224791;7.76;-8.83
VEN;ALL;Guacara;224728;10.24;-67.89
VNM;ALL;Vũng Tàu;224586;10.35;107.08
CHN;ALL;Tongchuan;224581;35.08;109.03
CHN;ALL;Daliang;224393;22.84;113.25
POL;ALL;Radom;224339;51.4;21.16
IND;ALL;Yamunānagar;224314;30.14;77.28
KOR;ALL;Kimpo;224196;37.64;126.7
USA;NC;Greensboro city;223891;36.079868;-79.819416
NOR;ALL;Bergen;223418;60.38;5.34
BRA;ALL;São Leopoldo;223281;-29.78;-51.15
CHN;ALL;Xintai;223271;35.9;117.76
RUS;ALL;Biysk;223127;52.53;85.17
CHN;ALL;Wuxue;223023;29.85;115.55
NER;ALL;Zinder;222918;13.8;8.99
SDN;ALL;Jūbā;222533;4.85;31.6
MEX;MEX-SIN;Los Mochis;222280;25.79;-109
USA;TX;Plano city;222030;33.050374;-96.745935
IND;ALL;Pūrnia;222025;25.78;87.47
BRA;ALL;São Carlos;221917;-22.02;-47.89
PAK;ALL;Kāmoke;221906;31.98;74.21
CHN;ALL;Hailar;221795;49.23;119.71
GIN;ALL;Guékédou;221715;8.56;-10.15
CUB;ALL;Guantánamo;221606;20.15;-75.22
BRA;ALL;Imperatriz;221570;-5.52;-47.49
POL;ALL;Sosnowiec;221396;50.28;19.12
SAU;ALL;al-H̱arj;221237;24.15;47.31
IND;ALL;Thanjāvūr;221185;10.79;79.13
ZAF;ALL;Vanderbijlpark;220892;-26.69;27.82
TKM;ALL;Daşoğuz;220810;41.85;59.96
MYS;ALL;Alor Setar;220802;6.11;100.37
ISR;ALL;Ashdod;220759;31.8;34.64
RUS;ALL;Staryy Oskol;220676;51.3;37.84
CMR;ALL;Loum;220548;4.72;9.73
UKR;ALL;Ivano-Frankivs'k;220403;48.92;24.71
TUR;ALL;Trabzon;219947;41;39.71
USA;NY;Rochester city;219773;43.165496;-77.611504
ESP;ALL;Oviedo;219699;43.35;-5.83
COL;ALL;Itagüí;219694;6.17;-75.62
IND;ALL;Thūthukkudi;219675;8.81;78.14
CUB;ALL;Santa Clara;219574;22.41;-79.97
ROU;ALL;Brăila;219517;45.28;27.97
GTM;ALL;Villa Canales;219416;14.48;-90.53
NGA;ALL;Abakaliki;219335;6.32;8.11
RUS;ALL;Dzokhar Gala, Groznyy;219233;43.31;45.7
BRA;ALL;Sete Lagoas;219142;-19.45;-44.25
DEU;ALL;Freiburg;219106;47.99;7.85
CHL;ALL;Talca;218870;-35.42;-71.66
USA;AZ;Glendale city;218812;33.580726;-112.199309
BLR;ALL;Babrujsk;218724;53.13;29.19
SAU;ALL;Ṯaqbah;218625;25.32;49.52
IDN;ALL;Purwokerto;218487;-7.43;109.24
EGY;ALL;Beni Suef;218472;29.08;31.09
IND;ALL;Mango;218360;22.85;86.21
VNM;ALL;Qui Nhơn;218297;13.77;109.24
LBY;ALL;al-H̱ums;218131;32.66;14.26
IDN;ALL;Cikupa;217955;-6.23;106.52
IDN;ALL;Brebes;217924;-6.86;109.03
IND;ALL;Nāgercoil;217751;8.18;77.43
IDN;ALL;Pondok Aren;217741;-6.25;106.68
ESP;ALL;Cartagena;217715;37.61;-0.98
UKR;ALL;Ternopil';217706;49.55;25.58
DEU;ALL;Oberhausen;217465;51.47;6.86
USA;OH;Akron city;217074;41.073155;-81.517900
IND;ALL;Bulandshahr;217024;28.41;77.85
SDN;ALL;ad̨-D̨u'ayn;216732;11.43;26.16
IND;ALL;Munger;216323;25.39;86.47
BRA;ALL;Itabuna;216200;-14.79;-39.28
SVN;ALL;Ljubljana;216199;46.06;14.51
ESP;ALL;Elx;216171;38.27;-0.68
NPL;ALL;Pokharā;216034;28.22;83.99
BRA;ALL;Petrolina;215980;-9.38;-40.51
IDN;ALL;Ciputat;215773;-6.23;106.68
CHL;ALL;Concepción;215768;-36.83;-73.05
USA;TX;Garland city;215768;32.907325;-96.635197
RUS;ALL;Velikiy Novgorod;215625;58.52;31.28
PLW;ALL;Hebron;215322;31.54;35.09
BRA;ALL;Maracanaú;215286;-3.89;-38.64
NLD;ALL;Eindhoven;215252;51.44;5.47
IRN;ALL;Sabzevār;215026;36.22;57.63
OMN;ALL;Matruh;214901;23.41;58.49
VEN;ALL;Guatire;214870;10.47;-66.53
IRN;ALL;Neyshābūr;214863;36.22;58.82
EGY;ALL;Qena;214851;26.15;32.72
IND;ALL;Agartala;214761;23.84;91.27
BRA;ALL;Camaçari;214382;-12.7;-38.33
MDG;ALL;Toamasina;214373;-18.15;49.4
ITA;ALL;Padova;214342;45.41;11.87
MYS;ALL;Taiping;214327;4.86;100.72
CHL;ALL;Iquique;214078;-20.23;-70.14
PAK;ALL;Chiniot;214015;31.72;72.98
IDN;ALL;Cilacap;213986;-7.34;109
COD;ALL;Mwene-Ditu;213880;-7;23.44
CHN;ALL;Jinzhou;213825;39.1;121.71
MEX;MEX-CAMP;Campeche;213687;19.85;-90.53
BIH;ALL;Banja Luka;213593;44.78;17.19
ETH;ALL;Gondar;213434;12.61;37.46
CYP;ALL;Nicosia;213027;35.16;33.38
RUS;ALL;Prokopyevsk;212835;53.9;86.71
MOZ;ALL;Nacala;212686;-14.56;40.68
PAK;ALL;Sādiqābād;212653;28.3;70.13
TUR;ALL;Kütahya;212481;39.42;29.98
IND;ALL;Chhāpra;212458;25.78;84.72
IND;ALL;Sīkar;212234;27.61;75.13
IND;ALL;Sultanpur Majra;212006;28.76;77.06
IDN;ALL;Cibinong;211924;-6.44;106.84
IRN;ALL;Najafābād;211850;32.67;51.35
CHN;ALL;Sanming;211839;26.23;117.58
RUS;ALL;Rybinsk;211494;58.05;38.83
CHN;ALL;Shuangyashan;211340;46.67;131.35
RUS;ALL;Norilsk;211287;69.34;88.22
MEX;MEX-JAL;Puerto Vallarta;211054;20.62;-105.23
BRA;ALL;Cachoeiro de Itapemirim;210657;-20.85;-41.13
IND;ALL;Loni;210624;28.75;77.28
DEU;ALL;Lübeck;210601;53.87;10.66
FRA;ALL;Rennes;210582;48.11;-1.68
IND;ALL;Krishnarajapura;210320;12.97;77.74
IDN;ALL;Karawang;210182;-6.3;107.28
RUS;ALL;Blagoveshchensk;210101;50.27;127.53
IDN;ALL;Pematang Siantar;209780;2.96;99.06
ESP;ALL;Móstoles;209552;40.32;-3.88
ESP;ALL;Terrassa;209448;41.57;2
BRA;ALL;Indaiatuba;209430;-23.09;-47.21
BRA;ALL;Mossoró;209267;-5.19;-37.34
ESP;ALL;Alcalá de Henares;209173;40.48;-3.37
CHN;ALL;Guangyuan;209006;32.43;105.87
IDN;ALL;Bojong Gede;208950;-6.48;107.78
IND;ALL;Nadiād;208950;22.7;72.85
MEX;MEX-SLP;Soledad;208613;22.18;-100.96
PHL;ALL;Meycauayan;208558;14.73;120.91
KAZ;ALL;Petropavl;208547;54.88;69.22
MEX;MEX-CHIS;Tapachula;208542;14.91;-92.27
BRA;ALL;Divinópolis;208538;-20.15;-44.9
VEN;ALL;Acarigua;208495;9.58;-69.2
IND;ALL;Bhiwāni;208474;28.81;76.12
BRA;ALL;Americana;208412;-22.75;-47.33
FIN;ALL;Tampere;208409;61.52;23.76
UKR;ALL;Bila Tserkva;208322;49.78;30.12
PRK;ALL;Kanggye;208311;40.97;126.6
DZA;ALL;Biskrah;208256;34.86;5.73
CHN;ALL;Huicheng;208096;22.52;113.02
TUR;ALL;Çorum;208061;40.56;34.96
USA;WI;Madison city;208054;43.074613;-89.394757
MYS;ALL;Sekudai;207993;1.53;103.67
GNQ;ALL;Bata;207765;1.87;9.76
DZA;ALL;Annābah;207617;36.91;7.76
IND;ALL;Bhalswa Jahangirpur;207605;28.74;77.17
ZMB;ALL;Kabwe;207563;-14.44;28.45
CHN;ALL;Suzhou;207415;33.64;117
ECU;ALL;Manta;207396;-0.96;-80.72
IRN;ALL;Bābol;207165;36.53;52.7
PHL;ALL;Olongapo;206888;14.82;120.28
ESP;ALL;Sabadell;206861;41.55;2.1
RKS;ALL;Priština;206686;42.65;21.17
PHL;ALL;Pagadian;206284;7.84;123.5
CHN;ALL;Yuncheng;206280;35.02;110.98
CHN;ALL;Mentougou;206224;39.94;116.07
IND;ALL;Burhānpur;206196;21.33;76.22
UZB;ALL;Ķüķon;206131;40.54;70.94
IND;ALL;Katihār;206055;25.55;87.57
POL;ALL;Toruń;205813;53.02;18.61
MYS;ALL;Sibu;205797;2.3;111.83
USA;IN;Fort Wayne city;205727;41.078348;-85.126546
POL;ALL;Kielce;205657;50.89;20.65
ARG;ALL;San Luis;205643;-33.31;-66.35
ESP;ALL;Jerez;205428;36.68;-6.13
IDN;ALL;Banjaran;205361;-7.05;107.58
IRN;ALL;Āmol;205267;36.43;52.4
HUN;ALL;Debrecen;205227;47.54;21.63
ROU;ALL;Oradea;205208;47.07;21.92
IND;ALL;Sambhal;205031;28.59;78.56
NGA;ALL;Sapele;204693;5.89;5.68
PHL;ALL;Tacloban;204659;11.29;125.02
CHN;ALL;Humen;204643;22.86;113.66
IND;ALL;Panchkula;204436;30.7;76.88
MEX;MEX-SON;Nogales;204287;31.31;-110.95
NGA;ALL;Katsina;204245;12.99;7.6
NPL;ALL;Lalitpur;204141;27.68;85.32
CAN;SK;Saskatoon;204126;52.15;-106.66
IND;ALL;Dindigul;204032;10.36;77.97
IDN;ALL;Plumbon;203880;-6.7;108.49
CHN;ALL;Linxia;203628;35.61;103.21
USA;PR;Bayamón zona urbana;203499;18.382431;-66.165700
ARG;ALL;Catamarca;203421;-28.47;-65.78
USA;CA;Fremont city;203413;37.542943;-121.982786
KOR;ALL;Chunchŏn;203022;37.86;127.74
USA;AZ;Scottsdale city;202705;33.590709;-111.895985
CHN;ALL;Nanchong;202680;30.78;106.13
FRA;ALL;Reims;202590;49.25;4.03
NLD;ALL;Tilburg;202560;51.57;5.07
DEU;ALL;Erfurt;202419;50.99;11.03
BRA;ALL;Francisco Morato;202399;-23.27;-46.75
IND;ALL;Murwāra;202300;23.85;80.39
CHN;ALL;Kaiyuan;202245;23.72;103.24
MYS;ALL;Kulim;201930;5.36;100.55
THA;ALL;Nakhon Ratchasima;201792;15;102.1
USA;AL;Montgomery city;201568;32.361538;-86.279118
IND;ALL;Navghar;201428;19.34;72.9
CHN;ALL;Donghai;201134;22.95;115.63
KOR;ALL;Kuri;201080;37.59;127.13
CHN;ALL;Yiyang;201046;28.6;112.33
BEL;ALL;Charleroi;200796;50.42;4.43
IND;ALL;Rajendranagar;200792;17.29;78.39
THA;ALL;Chon Buri;200767;13.4;101
IDN;ALL;Palangka Raya;200409;-2.21;113.92
IND;ALL;Sirsa;200388;29.53;75.03
DEU;ALL;Rostock;200387;54.09;12.1
UKR;ALL;Luts'k;200353;50.75;25.33
CHN;ALL;Xiaolan;200348;22.78;113.28
CIV;ALL;Korhogo;200258;9.45;-5.65
IDN;ALL;Taman;200167;-6.9;109.38
USA;LA;Shreveport city;200145;32.468003;-93.771115
ESP;ALL;Pamplona;200073;42.82;-1.65
COD;ALL;Kikwit;200033;-5.03;18.81
GBR;ENG;Portsmouth;199996;50.81;-1.09
IND;ALL;Rāe Bareli;199945;26.23;81.23
RUS;ALL;Balashikha;199850;55.8;37.95
TUR;ALL;Çorlu;199801;41.17;27.8
ITA;ALL;Trieste;199653;45.65;13.77
USA;TX;Lubbock city;199564;33.564735;-101.877793
RUS;ALL;Khimki;199486;55.89;37.44
NZL;ALL;Waitakere;199288;-36.85;174.54
IND;ALL;Shimla;199229;31.11;77.16
USA;VA;Chesapeake city;199184;36.767398;-76.287405
RUS;ALL;Balakovo;199062;52.03;47.78
LKA;ALL;Moratuwa;199021;6.81;79.88
USA;AL;Mobile city;198915;30.679523;-88.103280
SEN;ALL;Mbour;198826;14.43;-16.97
DEU;ALL;Mainz;198690;50;8.26
USA;IA;Des Moines city;198682;41.590939;-93.620866
ZAF;ALL;Alberton;198653;-26.33;28.13
NPL;ALL;Birātnagar;198575;26.46;87.28
LBY;ALL;az-Zāwiyah;198567;32.76;12.72
MMR;ALL;Monywa;198536;22.11;95.13
IND;ALL;Surendranagar;198341;22.71;71.67
SLE;ALL;Bo;198292;7.97;-11.74
COD;ALL;Mbandaka;198114;0.04;18.26
PRI;ALL;Bayamón;197965;18.35;-66.17
USA;MI;Grand Rapids city;197800;42.960476;-85.658280
USA;VA;Richmond city;197790;37.538346;-77.461507
PAK;ALL;Būrewāla;197702;30.16;72.67
CHN;ALL;Ezhou;197647;30.4;114.83
THA;ALL;Hat Yai;197481;7;100.47
IND;ALL;Baharampur;197243;24.1;88.24
MEX;MEX-TAM;Madero;197236;22.27;-97.83
VNM;ALL;Nam Định;197179;20.43;106.17
GIN;ALL;Kankan;197108;10.39;-9.31
PRK;ALL;Kimchaek;197019;40.67;129.2
VEN;ALL;El Limón;196945;10.3;-67.63
GEO;ALL;Kutaisi;196939;42.26;42.72
MOZ;ALL;Quelimane;196831;-17.88;36.89
IND;ALL;Morvi;196796;22.82;70.83
POL;ALL;Gliwice;196713;50.31;18.67
PHL;ALL;Montalban;196655;14.74;121.12
IND;ALL;Jūnāgadh;196654;21.52;70.45
BRA;ALL;Rio Grande;196537;-32.05;-52.11
COD;ALL;Uvira;196473;-3.37;29.14
CHN;ALL;Qianjiang;196417;30.43;112.89
DZA;ALL;Sīdī Bal'abbas;196403;35.19;-0.64
MEX;MEX-COAH;Monclova;196233;26.91;-101.42
USA;NY;Yonkers city;196086;40.941478;-73.864365
BRA;ALL;Cotia;195797;-23.6;-46.94
USA;WA;Spokane city;195629;47.673341;-117.410271
IND;ALL;Chandannagar;195595;22.89;88.37
RUS;ALL;Engels;195588;51.5;46.12
MMR;ALL;Meiktila;195541;20.88;95.85
BRA;ALL;Santarém;195355;-2.43;-54.72
USA;GA;Augusta-Richmond County (balance);195182;33.433271;-82.022048
TUR;ALL;Antakya;195153;36.2;36.17
PHL;ALL;Kabankalan;195143;10;122.82
USA;CA;Glendale city;194973;34.170939;-118.250081
RUS;ALL;Pskov;194865;57.83;28.33
ITA;ALL;Brescia;194839;45.55;10.22
NGA;ALL;Gombe;194809;10.29;11.17
BOL;ALL;Tarija;194768;-21.53;-64.74
BRA;ALL;Araraquara;194739;-21.75;-48.13
IND;ALL;Haridwār;194728;29.98;78.16
BRA;ALL;Rio Claro;194707;-22.41;-47.56
DEU;ALL;Hagen;194423;51.37;7.46
MEX;MEX-EMEX;Chalco;194218;19.26;-98.9
IDN;ALL;Perbaungan;194181;3.57;98.95
IND;ALL;Kharagpur;194172;22.34;87.31
IND;ALL;Ongole;194106;15.5;80.05
EGY;ALL;Sohag;193931;26.55;31.69
NLD;ALL;Almere;193763;52.36;5.17
COD;ALL;Matadi;193731;-5.82;13.48
MEX;MEX-EMEX;San Pablo de las Salinas;193693;19.67;-99.1
USA;WA;Tacoma city;193556;47.241371;-122.459389
DZA;ALL;Tibissah;193519;35.41;8.12
VEN;ALL;Ocumare del Tuy;193499;10.12;-66.78
RUS;ALL;Petropavlovsk-Kamchatskiy;193413;53.02;158.65
CHN;ALL;Karamay;193343;45.6;84.86
IND;ALL;Uttarpara-Kotrung;193340;22.66;88.35
ESP;ALL;Fuenlabrada;193315;40.27;-3.8
GBR;ENG;Dudley;193289;52.5;-2.08
MMR;ALL;Akyab;193071;20.14;92.89
CMR;ALL;Kumbo;193070;6.22;10.68
THA;ALL;Phra Pradaeng;193043;13.67;100.53
ISR;ALL;Be'er Sheva;193017;31.25;34.8
PHL;ALL;Legazpi;192964;13.17;123.75
CHN;ALL;Baiyin;192860;36.53;104.2
ECU;ALL;Portoviejo;192857;-1.06;-80.46
IDN;ALL;Cicalengka;192798;-6.99;107.83
IRL;ALL;Cork;192706;51.9;-8.47
VEN;ALL;Cúa;192688;10.17;-66.9
DEU;ALL;Kassel;192667;51.32;9.48
ZAF;ALL;George;192665;-33.95;22.45
ESH;ALL;al-'Ayūn;192639;27.16;-13.2
IND;ALL;Bahraich;192578;27.58;81.59
MMR;ALL;Mergui;192424;12.45;98.6
IND;ALL;Machilīpatnam;192358;16.19;81.14
BRA;ALL;Passo Fundo;192343;-28.25;-52.42
RUS;ALL;Severodvinsk;192270;64.57;39.83
CHN;ALL;Saertu;192265;46.59;125.02
PHL;ALL;Cotabato;192265;7.23;124.25
FIN;ALL;Vantaa;192163;60.29;25.04
LBY;ALL;Zuwārah;192159;32.95;12.09
ESP;ALL;Almería;192140;36.83;-2.43
ITA;ALL;Taranto;191938;40.48;17.24
SYR;ALL;ar-Raqqah;191784;35.93;39.02
CHL;ALL;Puerto Montt;191713;-41.47;-72.94
IDN;ALL;Salatiga;191694;-7.3;110.47
USA;TX;Irving city;191615;32.847128;-96.966255
ZAF;ALL;Somerset West;191463;-34.07;18.84
BRA;ALL;Itaboraí;191397;-22.75;-42.87
TUR;ALL;Adıyaman;191255;37.77;38.28
IND;ALL;Khandwa;190996;21.83;76.35
OMN;ALL;Bawšar;190930;23.53;58.39
BGR;ALL;Burgas;190925;42.51;27.47
IND;ALL;Bhusāwal;190922;21.05;75.78
IND;ALL;Gāndhīdham;190905;23.07;70.13
UGA;ALL;Gulu;190866;2.78;32.28
BRA;ALL;Ferraz de Vasconcelos;190731;-23.54;-46.37
CHN;ALL;Zouxian;190717;35.41;116.94
TUN;ALL;Sūsah;190630;35.84;10.64
HND;ALL;Choloma;190392;15.61;-87.96
CHL;ALL;Arica;190357;-18.49;-70.3
OMN;ALL;Şalālah;190348;17.02;54.09
IND;ALL;Bhind;190291;26.57;78.77
CHN;ALL;Haicheng;190262;40.86;122.74
ECU;ALL;Eloy Alfaro;190218;-2.17;-79.83
RUS;ALL;Armavir;190139;44.99;41.12
IDN;ALL;Lawang;190118;-7.83;112.7
BRA;ALL;Barreiras;190068;-12.14;-45
MYS;ALL;Melaka;190020;2.21;102.25
BRA;ALL;Nossa Senhora do Socorro;189945;-10.87;-37.12
BRA;ALL;Sabará;189893;-19.89;-43.87
DZA;ALL;Tiyārat;189710;35.38;1.32
EGY;ALL;Hurghada;189661;27.23;33.83
KOR;ALL;Osan;189628;37.15;127.07
CHN;ALL;Wanxian;189619;30.82;108.4
IDN;ALL;Pemalang;189602;-6.88;109.38
USA;CA;Huntington Beach city;189594;33.692888;-118.000194
USA;VA;Arlington CDP;189453;38.880344;-77.108260
AUT;ALL;Linz;189299;48.31;14.29
BEL;ALL;Liège;189220;50.64;5.57
LBN;ALL;Ţarābulus;188958;34.44;35.83
USA;CA;Modesto city;188856;37.661479;-120.994543
IDN;ALL;Madiun;188833;-7.63;111.51
POL;ALL;Zabrze;188486;50.3;18.78
RUS;ALL;Zlatoust;188483;55.17;59.65
MEX;MEX-PUE;Cholula;188437;19.06;-98.31
MDG;ALL;Antsirabé;188359;-19.87;47.03
IND;ALL;Jāmuria;188184;23.7;87.08
PHL;ALL;Talisay;187909;10.26;123.84
PAK;ALL;Jacobābād;187840;28.28;68.43
BRA;ALL;Santa Bárbara d'Oeste;187748;-22.75;-47.42
GBR;ENG;Luton;187475;51.9;-0.44
MYS;ALL;Pasir Gudang;187267;1.45;103.89
ZAF;ALL;Paarl;187246;-33.7;18.96
THA;ALL;Pak Kret;187175;13.9;100.51
USA;NC;Durham city;187035;35.988644;-78.907167
IRN;ALL;Sāveh;186941;35.02;50.33
CMR;ALL;Edéa;186695;3.8;10.12
USA;NV;Paradise CDP;186070;36.082073;-115.124654
SLV;ALL;Santa Ana;186058;14;-89.54
USA;FL;Orlando city;185951;28.533513;-81.375789
USA;ID;Boise City city;185787;43.613739;-116.237651
USA;GA;Columbus city (balance);185781;32.489608;-84.940422
USA;NC;Winston-Salem city;185776;36.102764;-80.260491
GBR;ENG;Northampton;185757;52.24;-0.9
USA;CA;San Bernardino city;185401;34.129510;-117.293150
ETH;ALL;Desē;185314;11.13;39.63
MLI;ALL;Sikasso;185220;11.32;-5.68
ETH;ALL;Mek'elē;185207;13.5;39.47
CHN;ALL;Zaoyang;185199;32.13;112.75
CHN;ALL;Korla;185192;41.73;86.15
NLD;ALL;Groningen;185091;53.23;6.57
NOR;ALL;Stavanger-Sandnes;185036;58.97;5.71
IND;ALL;Amroha;184952;28.91;78.46
ESP;ALL;Leganés;184827;40.33;-3.77
LTU;ALL;Klaipėda;184708;55.71;21.13
CHN;ALL;Zaozhuang;184702;34.88;117.57
IRN;ALL;Khvoy;184409;38.53;44.97
JOR;ALL;al-Quwaysimah;184354;31.92;35.95
IDN;ALL;Hamparan Perak;184345;3.72;98.62
CHN;ALL;Licheng;184256;23.3;113.82
USA;MS;Jackson city;184256;32.320445;-90.204415
POL;ALL;Bytom;184247;50.35;18.91
MEX;MEX-MOR;Jiutepec;184231;18.87;-99.18
CHN;ALL;Xianning;184224;29.88;114.22
ITA;ALL;Parma;184197;44.81;10.32
ITA;ALL;Reggio di Calabria;184177;38.11;15.65
ITA;ALL;Prato;184090;43.89;11.09
ESP;ALL;San Sebastián;184064;43.32;-1.98
EGY;ALL;Madīnat Sittah Uktūbar;183859;29.82;31.05
ROU;ALL;Bacău;183643;46.58;26.92
NZL;ALL;Wellington;183582;-41.28;174.78
ISR;ALL;Petaẖ Tiqwa;183457;32.09;34.88
CHN;ALL;Badaojiang;183439;41.94;126.44
ETH;ALL;Bahir Dar;183363;11.56;37.37
CHL;ALL;La Serena;183288;-29.9;-71.25
IRN;ALL;Qarchak;183220;35.42;51.58
THA;ALL;Chiang Mai;183214;18.8;98.98
DEU;ALL;Hamm;183139;51.67;7.8
USA;AR;Little Rock city;183133;34.736009;-92.331122
CHL;ALL;Coquimbo;183050;-29.96;-71.33
IND;ALL;Vizianagaram;183030;18.12;83.4
IND;ALL;Bahādurgarh;182948;28.69;76.92
KAZ;ALL;Akmechet;182929;44.8;65.47
BEN;ALL;Parakou;182913;9.34;2.62
IND;ALL;Khammam;182884;17.25;80.15
ITA;ALL;Modena;182866;44.65;10.92
IND;ALL;Pathānkot;182839;32.27;75.64
CHN;ALL;Quanzhou;182684;24.9;118.58
ZAF;ALL;Kimberley;182646;-28.75;24.77
TUR;ALL;İskenderun;182426;36.58;36.17
MEX;MEX-EMEX;Metepec;182354;19.27;-99.62
IND;ALL;Verāval;182345;20.92;70.34
FRA;ALL;Le Havre;182279;49.5;0.12
IND;ALL;Jīnd;182035;29.31;76.3
MYS;ALL;Kluang;182017;2.04;103.32
IDN;ALL;Tanjung Morawa;181905;3.52;98.82
USA;UT;Salt Lake City city;181743;40.754700;-111.892622
IND;ALL;Hugli-Chunchura;181716;22.91;88.4
ZWE;ALL;Mutare;181680;-18.97;32.65
CHN;ALL;Luan;181667;31.75;116.48
CHN;ALL;Honghu;181597;29.82;113.47
IND;ALL;Puri;181556;19.81;85.83
ESP;ALL;Santander;181343;43.47;-3.8
IDN;ALL;Pamulang;181204;-6.31;106.73
PRT;ALL;Amadora;181179;38.75;-9.24
GIN;ALL;Kindia;181126;10.06;-12.87
IDN;ALL;Probolinggo;181112;-7.76;113.2
TUR;ALL;Osmaniye;180998;37.07;36.25
IRN;ALL;Bojnūrd;180862;37.47;57.32
RUS;ALL;Kamensk-Uralskiy;180775;56.41;61.93
BRA;ALL;Chapecó;180751;-27.1;-52.64
TUR;ALL;İsparta;180742;37.77;30.55
CHN;ALL;Shangqiu;180698;34.44;115.64
IRN;ALL;Qā'emshahr;180659;36.47;52.87
IND;ALL;Virār;180541;19.47;72.79
TUR;ALL;Kırıkkale;180511;39.85;33.52
USA;NV;Reno city;180480;39.527110;-119.821812
EGY;ALL;Shebin-El-Kom;180454;30.56;31
KAZ;ALL;Aktaū;180373;43.64;51.18
PHL;ALL;Digos;180324;6.76;125.35
IDN;ALL;Rancaekek;180172;-6.95;107.75
USA;VA;Newport News city;180150;37.071046;-76.484557
THA;ALL;Si Racha;179862;13.16;100.93
MEX;MEX-GRO;Chilpancingo;179787;17.55;-99.5
TUR;ALL;Kayapınar;179768;37.94;40.19
AUS;ALL;Sunshine Coast;179763;-25.88;152.56
SEN;ALL;Kaolack;179626;14.15;-16.1
COL;ALL;Envigado;179605;6.16;-75.56
KAZ;ALL;Temirtaū;179520;50.07;72.96
BRA;ALL;Angra dos Reis;179494;-23;-44.32
CHN;ALL;Anda;179480;46.4;125.32
SDN;ALL;al-Junaynah;179409;13.45;22.44
SDN;ALL;Rabak;179401;13.18;32.74
IDN;ALL;Soreang;179384;-7.02;107.51
BRA;ALL;Parnamirim;179366;-5.91;-35.26
ZAF;ALL;Embalenhle;179283;-26.53;29.06
RUS;ALL;Syzran;179178;53.17;48.47
CAN;SK;Regina;179079;50.45;-104.61
CHE;ALL;Genève;178952;46.21;6.14
PHL;ALL;Koronadal;178783;6.5;124.85
TUR;ALL;Uşak;178737;38.68;29.41
RUS;ALL;Podolsk;178593;55.42;37.54
CHN;ALL;Jingzhou;178543;30.35;112.18
IND;ALL;Fatehpur;178540;25.93;80.81
ISR;ALL;Netanya;178530;32.33;34.86
MYS;ALL;Bintulu;178495;3.17;113.03
BRA;ALL;Sobral;178293;-3.69;-40.35
COL;ALL;Dos Quebradas;178268;4.83;-75.67
GRC;ALL;Piraieús;178215;37.96;23.64
BGD;ALL;Pābna;178072;24;89.24
IND;ALL;Shivapuri;178054;25.43;77.65
IDN;ALL;Lubuk Linggau;177953;-3.29;102.85
IND;ALL;Hanumāngarh;177879;29.62;74.29
KWT;ALL;Jalīb aš-Šuyūẖ;177854;29.27;47.94
BGD;ALL;Dinājpūr;177808;25.63;88.64
CHN;ALL;Chenzhou;177658;25.8;113.03
IND;ALL;Elūru;177642;16.72;81.11
PHL;ALL;Hagonoy;177628;14.83;120.69
IND;ALL;Nandyāl;177608;15.49;78.48
RUS;ALL;Novocherkassk;177407;47.42;40.09
HRV;ALL;Split;177196;43.51;16.45
FRA;ALL;Angers;177143;47.48;-0.54
CHN;ALL;Gaozhou;177104;21.93;110.84
DOM;ALL;San Cristóbal;177092;18.42;-70.11
CHN;ALL;Qincheng;177033;34.6;105.92
BRA;ALL;Araçatuba;176917;-21.21;-50.45
ECU;ALL;Ambato;176910;-1.24;-78.62
PER;ALL;Ayacucho;176903;-13.17;-74.22
DEU;ALL;Saarbrücken;176857;49.25;6.97
BRA;ALL;Arapiraca;176749;-9.75;-36.67
COD;ALL;Gandajika;176747;-6.74;23.96
IDN;ALL;Purwodadi;176731;-7.09;110.91
USA;AZ;Chandler city;176581;33.297756;-111.863522
USA;TX;Laredo city;176576;27.524445;-99.490593
IND;ALL;Jaunpur;176543;25.76;82.69
ARG;ALL;La Rioja;176522;-29.41;-66.85
ZAF;ALL;Carltonville;176329;-26.34;27.37
AGO;ALL;Kuito;176296;-12.38;16.94
IND;ALL;Ingrāj Bāzār;176292;25.01;88.14
KHM;ALL;Bat Dâmbâng;176243;13.11;103.21
MAR;ALL;Beni Mellal;176238;32.35;-6.37
COD;ALL;Butembo;176233;0.13;29.28
KOR;ALL;Kangnŭng;176154;37.76;128.89
CHN;ALL;Bozhou;176080;33.87;115.76
ZAF;ALL;Vryheid;176018;-27.76;30.79
IND;ALL;Velluru;175942;12.92;79.13
ESP;ALL;Burgos;175900;42.35;-3.69
CHN;ALL;Yizheng;175895;32.27;119.2
IND;ALL;Alappuzha;175889;9.5;76.33
FIN;ALL;Turku;175850;60.45;22.25
POL;ALL;Bielsko-Biała;175747;49.82;19.05
MEX;MEX-VER;Poza Rica;175605;20.55;-97.47
MEX;MEX-BCS;La Paz;175558;24.14;-110.32
POL;ALL;Olsztyn;175542;53.78;20.49
HUN;ALL;Miskolc;175519;48.1;20.79
USA;NV;Henderson city;175381;36.029249;-115.025286
MWI;ALL;Mzuzu;175345;-11.46;34.02
BRA;ALL;Dourados;175215;-22.23;-54.81
IRQ;ALL;Zāẖū;175215;37.14;42.69
KOR;ALL;Chungju;175100;36.98;127.94
DZA;ALL;Burj Bū Arrīrij;174910;36.06;4.63
CHN;ALL;Jiutai;174695;44.15;125.84
MDG;ALL;Fianarantsoa;174654;-21.45;47.07
UZB;ALL;Fargona;174569;40.39;71.78
IND;ALL;Unnāo;174537;26.55;80.49
IRN;ALL;Sīrjān;174523;29.47;55.73
NER;ALL;Maradi;174485;13.49;7.1
CHN;ALL;Weinan;174451;34.5;109.5
IDN;ALL;Sunggal;174413;3.55;98.61
PHL;ALL;Cadiz;174396;10.93;123.3
ETH;ALL;Jīmma;174393;7.68;36.83
RUS;ALL;Korolyov;174373;55.92;37.82
ZAF;ALL;Middelburg;174373;-25.76;29.47
PHL;ALL;San Mateo;174370;14.71;121.13
CHN;ALL;Jian;174204;27.13;115
IND;ALL;Sītāpur;174172;27.57;80.69
IND;ALL;Dinapur;173975;25.64;85.04
SAU;ALL;al-H̱ubar;173923;26.23;50.2
USA;TN;Knoxville city;173890;35.972882;-83.942161
IDN;ALL;Gunung Putri;173824;-6.45;106.87
CHN;ALL;Anbu;173793;23.46;116.68
USA;TX;Amarillo city;173627;35.199252;-101.845163
USA;RI;Providence city;173618;41.823550;-71.422132
USA;CA;Chula Vista city;173556;32.627910;-117.047988
IDN;ALL;Serang;173480;-6.11;106.15
IND;ALL;Rāiganj;173443;25.62;88.12
RUS;ALL;Toyohara, Yuzhno-Sakhalinsk;173247;46.95;142.74
IND;ALL;Orai;173246;25.99;79.45
CAN;ON;Barrie;173198;44.38;-79.68
SEN;ALL;Saint-Louis;173125;16.03;-16.49
GBR;WLS;Swansea;173102;51.63;-3.96
SRB;ALL;Niš;172944;43.33;21.9
NLD;ALL;Breda;172897;51.58;4.77
COD;ALL;Kalemie;172888;-5.92;29.17
BGD;ALL;Nawābganj;172785;24.59;88.27
BRA;ALL;Lages;172784;-27.81;-50.31
VEN;ALL;Punto Fijo;172751;11.72;-70.21
USA;MA;Worcester city;172648;42.268843;-71.803774
FRA;ALL;Saint-Étienne;172596;45.43;4.39
ROU;ALL;Piteşti;172583;44.86;24.87
PLW;ALL;Nablus;172383;32.23;35.26
GHA;ALL;Tema;172334;5.64;0.01
GBR;ENG;Newcastle upon Tyne;172138;55;-1.6
ZAF;ALL;Springs;172110;-26.27;28.43
GBR;ENG;Sunderland;172078;54.91;-1.39
ESP;ALL;Castelló;171988;39.97;-0.05
GBR;ENG;Walsall;171971;52.6;-1.97
CHN;ALL;Fuyang;171917;32.9;115.82
CHN;ALL;Linhe;171846;40.83;107.5
GBR;ENG;Norwich;171726;52.65;1.28
TUR;ALL;Aydın;171716;37.86;27.84
COL;ALL;Barrancabermeja;171689;7.09;-73.85
IND;ALL;Budaun;171678;28.04;79.12
MAR;ALL;Khouribga;171619;32.89;-6.91
MMR;ALL;Taunggyi;171385;20.78;97.04
ZMB;ALL;Chingola;171296;-12.54;27.85
UKR;ALL;Kramators'k;171222;48.72;37.53
MEX;MEX-COAH;Acuña;171160;29.32;-100.94
SLV;ALL;San Miguel;171152;13.47;-88.18
IDN;ALL;Metro;171137;-5.1;105.33
GNQ;ALL;Malabo;170964;3.74;8.79
CHN;ALL;Shanwei;170943;22.78;115.35
RUS;ALL;Volgodonsk;170770;47.51;42.15
TLS;ALL;Dili;170490;-8.57;125.58
BRA;ALL;Criciúma;170390;-28.68;-49.39
USA;CA;Oxnard city;170358;34.191292;-119.182497
PLW;ALL;Rafah̨;170308;31.29;34.25
CHN;ALL;Tongzhou;170306;39.9;116.64
BRA;ALL;Itapecerica da Serra;170231;-23.72;-46.83
CHN;ALL;Dongling;170211;41.82;123.56
RUS;ALL;Nakhodka;170141;42.83;132.89
ZAF;ALL;Klerksdorp;169953;-26.88;26.62
TZA;ALL;Kigoma;169942;-4.88;29.61
NGA;ALL;Makurdi;169911;7.73;8.53
ITA;ALL;Reggio nell'Emilia;169890;44.71;10.63
CHN;ALL;Nanping;169806;26.63;118.17
CHN;ALL;Laiyang;169755;36.97;120.7
ZAF;ALL;Midstream;169720;-26;28.13
DZA;ALL;Bijāyah;169648;36.76;5.07
PAK;ALL;Jhelum;169465;32.94;73.72
DZA;ALL;al-Blīdah;169453;36.48;2.83
MYS;ALL;Bandar Penggaram;169430;1.85;102.93
TZA;ALL;Dodoma;169174;-6.17;35.74
BLR;ALL;Baranavičy;169122;53.14;26.02
PHL;ALL;Guyong;169081;14.84;120.98
IND;ALL;Adoni;169057;15.63;77.28
FRA;ALL;Toulon;169050;43.13;5.92
DEU;ALL;Herne;169014;51.54;7.21
ARM;ALL;Gyumri;168918;40.78;43.83
DEU;ALL;Mülheim;168895;51.43;6.86
COL;ALL;Tuluá;168879;4.09;-76.21
IND;ALL;Pallāvaram;168858;12.99;80.16
PAK;ALL;Shikārpur;168817;27.96;68.64
PHL;ALL;Toledo;168716;10.38;123.64
ESP;ALL;Alcorcón;168674;40.35;-3.82
GBR;SCT;Aberdeen;168651;57.15;-2.1
GHA;ALL;Cape Coast;168575;5.11;-1.25
DZA;ALL;Warqlā;168505;31.97;5.34
GHA;ALL;Teshie;168469;5.59;-0.1
CHN;ALL;Jingmen;168377;31.03;112.19
IND;ALL;Sambalpur;168353;21.47;83.97
IND;ALL;Gadag;168351;15.44;75.63
DZA;ALL;aš-Šalif;168316;36.17;1.32
IND;ALL;Hoshiārpur;168311;31.53;75.91
POL;ALL;Rzeszów;168188;50.05;22
USA;PR;Carolina zona urbana;168164;18.401964;-65.974387
IDN;ALL;Karang Tengah;167771;-6.83;107.12
CHN;ALL;Liupanshui;167632;26.58;104.86
PRI;ALL;Carolina;167556;18.34;-65.95
VNM;ALL;Phan Thiết;167525;10.93;108.11
NGA;ALL;Owo;167416;7.2;5.59
BRA;ALL;Itajaí;167374;-26.9;-48.68
GBR;ENG;Preston;167369;53.76;-2.73
CHN;ALL;Fuling;167069;29.72;107.35
BRA;ALL;Barra Mansa;167039;-22.56;-44.17
DZA;ALL;Sakīkdah;167035;36.88;6.9
CMR;ALL;Kumba;166947;4.64;9.44
VEN;ALL;Catia La Mar;166880;10.56;-67.03
IND;ALL;Guna;166862;24.65;77.3
CHN;ALL;Wulanhaote;166710;46.08;122.08
IND;ALL;Midnapur;166680;22.33;87.15
CYP;ALL;Lemesos;166614;34.68;33.05
IND;ALL;Saharsa;166515;25.88;86.59
IND;ALL;Bhadrāvati;166412;13.84;75.69
NGA;ALL;Shagamu;166341;6.84;3.64
IND;ALL;Banda;166278;25.48;80.33
GRC;ALL;Pátrai;166226;38.24;21.73
USA;OH;Dayton city;166179;39.762708;-84.196665
IDN;ALL;Astanajapura;165914;-6.8;108.6
PAK;ALL;Kohāt;165714;33.6;71.44
NGA;ALL;Potiskum;165539;11.71;11.08
ESP;ALL;Albacete;165478;39;-1.87
VEN;ALL;Anaco;165384;9.44;-64.46
SLV;ALL;Mejicanos;165361;13.73;-89.2
IND;ALL;Chittur;165323;13.22;79.1
RUS;ALL;Berezniki;165209;59.41;56.77
USA;CA;Garden Grove city;165196;33.778766;-117.960267
CHN;ALL;Jiaozhou;165182;36.29;120
IRN;ALL;Bīrjand;165174;32.88;59.22
CHN;ALL;Hengshan;164993;45.2;130.89
IND;ALL;Madhyamgram;164858;22.7;88.45
ISR;ALL;H̱olon;164855;32.02;34.76
IRN;ALL;Būshehr;164836;28.92;50.83
CZE;ALL;Plzeň;164816;49.75;13.37
ARE;ALL;Rā's al-H̱aymah;164787;25.79;55.94
CHN;ALL;Weihai;164772;37.5;122.1
ITA;ALL;Perugia;164745;43.11;12.39
CMR;ALL;Mbouda;164487;5.64;10.25
ROU;ALL;Arad;164216;46.19;21.32
IRQ;ALL;Tall 'Afar;164088;36.38;42.45
GHA;ALL;Sekondi;164000;4.94;-1.72
RUS;ALL;Abakan;163988;53.72;91.43
IND;ALL;Tonk;163951;26.17;75.78
CHN;ALL;Xinan;163929;23.17;112.89
JOR;ALL;H̱alda wa Tilā'-al-'Alī;163906;32.01;35.85
DEU;ALL;Ludwigshafen;163901;49.48;8.44
THA;ALL;Thanyaburi;163800;14.02;100.71
CHN;ALL;Chuncheng;163751;22.18;111.78
CUB;ALL;Las Tunas;163727;20.97;-76.95
BRA;ALL;Camaragibe;163697;-8;-35.04
SEN;ALL;Ziguinchor;163585;12.59;-16.29
BRA;ALL;Rondonópolis;163339;-16.47;-54.64
IDN;ALL;Sukaraja;163199;-6.9;106.9
IND;ALL;Mohali;163094;30.78;76.69
RUS;ALL;Mytishchi;162953;55.91;37.73
MYS;ALL;Georgetown;162734;5.37;100.31
CHN;ALL;Chenghai;162584;23.47;116.77
IDN;ALL;Kebumen;162513;-7.67;109.65
IND;ALL;Gūdalūr;162478;11.76;79.75
DEU;ALL;Solingen;162335;51.18;7.06
DEU;ALL;Osnabrück;162299;52.28;8.05
UZB;ALL;Margilon;162248;40.47;71.71
PAK;ALL;Hāfizābād;162222;32.07;73.68
HUN;ALL;Szeged;161975;46.26;20.16
CUB;ALL;Bayamo;161849;20.38;-76.65
PAK;ALL;Khānewāl;161750;30.31;71.82
VNM;ALL;Long Xuyên;161629;10.39;105.43
CHE;ALL;Basel;161584;47.57;7.58
DEU;ALL;Leverkusen;161427;51.04;6.99
CHN;ALL;Qingyuan;161340;23.72;113.02
NLD;ALL;Nijmegen;161265;51.84;5.85
EGY;ALL;Benha;161263;30.47;31.18
COD;ALL;Goma;161242;-1.69;29.22
CHN;ALL;Xiaogan;161037;30.92;113.9
USA;CA;Oceanside city;161029;33.211566;-117.325701
MYS;ALL;Rawang;161014;3.32;101.58
SDN;ALL;Malakāl;160917;9.53;31.65
ARG;ALL;Río Cuarto;160866;-33.13;-64.35
NZL;ALL;Hamilton;160862;-37.78;175.28
GHA;ALL;Obuasi;160770;6.19;-1.66
IND;ALL;Proddatūr;160739;14.73;78.55
BOL;ALL;Potosí;160648;-19.57;-65.75
BRA;ALL;Ilhéus;160615;-14.78;-39.05
IND;ALL;Kaithal;160565;29.81;76.4
IND;ALL;Tāmbaram;160563;12.93;80.12
TUR;ALL;Afyonkarahisar;160555;38.77;30.54
SDN;ALL;ad-Damazīn;160515;11.77;34.35
IRN;ALL;Īlām;160454;33.63;46.43
CIV;ALL;San-Pédro;160233;4.77;-6.64
VEN;ALL;Guanare;160133;9.05;-69.75
GBR;ENG;Bournemouth;160117;50.73;-1.88
IDN;ALL;Pasarkemis;160107;-6.16;106.51
CHN;ALL;Zhicheng;159979;30.3;111.49
IND;ALL;Silchar;159908;24.83;92.77
FRA;ALL;Grenoble;159900;45.19;5.72
HND;ALL;La Ceiba;159895;15.78;-86.79
VEN;ALL;Cagua;159879;10.19;-67.46
IDN;ALL;Dumai;159833;1.68;101.45
ZAF;ALL;Virginia;159807;-28.09;26.87
IDN;ALL;Baturaja;159746;-4.13;104.17
IND;ALL;Alandur;159739;13.03;80.23
RUS;ALL;Lyubertsy;159593;55.67;37.89
DEU;ALL;Oldenburg;159538;53.15;8.21
PRK;ALL;Sariwŏn;159534;38.51;125.76
SAU;ALL;Ara'ar;159500;30.99;41.02
MDG;ALL;Mahajanga;159322;-15.72;46.31
IND;ALL;Tenāli;159265;16.24;80.65
IND;ALL;Shāntipur;159250;23.26;88.44
BRA;ALL;Guarapuava;159219;-25.38;-51.48
IND;ALL;Batala;159198;31.82;75.21
CUB;ALL;Cienfuegos;159196;22.16;-80.45
ESP;ALL;Salamanca;159001;40.97;-5.67
CHN;ALL;Sanya;158832;18.23;109.48
UGA;ALL;Lira;158761;2.26;32.89
IND;ALL;Lakhīmpur;158753;27.95;80.78
BRA;ALL;Poços de Caldas;158660;-21.78;-46.57
USA;AZ;Tempe city;158625;33.388696;-111.928783
IDN;ALL;Pasuruan;158615;-7.64;112.9
MOZ;ALL;Tete;158502;-16.17;33.58
SLE;ALL;Kenema;158496;7.88;-11.19
CHN;ALL;Loudi;158446;27.75;111.98
DZA;ALL;Medea;158409;36.27;2.77
UKR;ALL;Melitopol';158392;46.84;35.37
BRA;ALL;Marabá;158376;-5.34;-49.13
IND;ALL;Faizābād;158339;26.78;82.14
KAZ;ALL;Atyrau;158308;47.12;51.88
BRA;ALL;Macaé;158277;-22.38;-41.79
IDN;ALL;Paseh;158263;-7.1;107.75
IDN;ALL;Tanjung Balai;158225;2.97;99.8
USA;AL;Huntsville city;158216;34.712341;-86.596296
KAZ;ALL;Èkibastuz;158165;51.73;75.32
BGR;ALL;Ruse;158120;43.85;25.98
USA;CA;Ontario city;158007;34.052811;-117.627861
GBR;ENG;Swindon;157895;51.57;-1.78
IND;ALL;Sāsarām;157699;24.96;84.01
VEN;ALL;Calabozo;157477;8.93;-67.44
MAR;ALL;El Jadida, El-Jadida;157427;33.26;-8.51
IDN;ALL;Sidoarjo;157208;-7.45;112.71
BRA;ALL;Paranaguá;157206;-25.51;-48.54
CMR;ALL;Foumban;157136;5.73;10.9
RUS;ALL;Maykop;157051;44.61;40.11
DNK;ALL;Odense;157028;55.4;10.38
IDN;ALL;Teluknaga;157021;-6.08;106.61
PRK;ALL;Songnim;156941;38.74;125.64
CUB;ALL;Pinar del Rio;156933;22.41;-83.7
RUS;ALL;Rubtsovsk;156720;51.53;81.2
VEN;ALL;Mariara;156699;10.29;-67.72
RUS;ALL;Salavat;156609;53.37;55.92
IND;ALL;Bīd;156590;18.99;75.76
IND;ALL;Bharūch;156492;21.71;72.97
BRA;ALL;Nova Friburgo;156441;-22.26;-42.54
IND;ALL;Kānchipuram;156422;12.84;79.7
CIV;ALL;Man;156385;7.4;-7.55
PHL;ALL;Naga;156357;13.6;123.2
MMR;ALL;Myingyan;156173;21.46;95.39
BGD;ALL;Brāhman Bāriya;156128;23.97;91.1
USA;NV;Sunrise Manor CDP;156120;36.175445;-115.059707
IND;ALL;Ādityāpur;156105;22.8;86.04
NLD;ALL;Enschede;156105;52.22;6.89
CHN;ALL;Guangshui;156061;31.62;114
IRN;ALL;Būkān;156049;36.53;46.2
CHL;ALL;Talcahuano;156003;-36.74;-73.13
HUN;ALL;Pécs;155942;46.08;18.22
BHR;ALL;Manama;155927;26.21;50.58
IRN;ALL;Malāyer;155922;34.32;48.85
NLD;ALL;Apeldoorn;155913;52.22;5.96
CHN;ALL;Xinzhou;155831;38.41;112.72
CHN;ALL;Nanpiao;155803;41.13;120.72
CHN;ALL;Yichun;155776;47.7;128.9
IND;ALL;Rājnāndgaon;155700;21.1;81.04
IDN;ALL;Gorontalo;155692;0.56;123.06
UZB;ALL;Navoi;155589;40.11;65.35
USA;TN;Chattanooga city;155554;35.045473;-85.267255
CHN;ALL;Huzhou;155374;30.87;120.1
NOR;ALL;Trondheim;155355;63.44;10.4
ESP;ALL;Getafe;155353;40.3;-3.73
CHN;ALL;Taicheng;155104;22.26;112.77
IRQ;ALL;as-Samāwah;155103;31.32;45.28
IND;ALL;Uppal Kalan;155089;17.38;78.55
BRA;ALL;Luziânia;155086;-16.25;-47.92
CAF;ALL;Bimbo;155043;4.3;18.54
USA;PR;Ponce zona urbana;155038;18.011230;-66.617367
GBR;ENG;Southend-on-Sea;155004;51.55;0.71
ZAF;ALL;Epumalanga;154974;-29.82;30.61
COL;ALL;Tunja;154971;5.55;-73.37
CHN;ALL;Leshan;154761;29.57;103.74
ITA;ALL;Cagliari;154740;39.22;9.1
CHL;ALL;Chillán;154668;-36.6;-72.11
JAM;ALL;Spanish Town;154660;18;-76.95
TZA;ALL;Tabora;154616;-5.01;32.82
CHN;ALL;Yuhong;154516;41.82;123.5
PAK;ALL;Muzaffargarh;154482;30.07;71.18
MUS;ALL;Port Louis;154477;-20.17;57.51
NPL;ALL;Bīrganj;154305;27.02;84.87
VNM;ALL;Buôn Ma Thuột;154223;12.68;108.04
CHN;ALL;Dingzhou;154206;38.51;114.98
IDN;ALL;Ungaran;154099;-7.12;110.4
DZA;ALL;Jījīlī;153918;36.83;5.77
CHN;ALL;Beipiao;153875;41.81;120.76
ZAF;ALL;Westonaria;153849;-26.32;27.65
PHL;ALL;Marawi;153839;8;124.29
LBY;ALL;Ajdābiyā;153806;30.77;20.22
BRA;ALL;Porto Seguro;153800;-16.43;-39.08
BRA;ALL;Jaraguá do Sul;153757;-26.48;-49.1
MYS;ALL;Gelugor;153730;5.48;100.5
RUS;ALL;Ussuriysk;153703;43.8;132.01
NGA;ALL;Ikire;153585;7.35;4.18
FRA;ALL;Aix-en-Provence;153507;43.53;5.44
ITA;ALL;Leghorn;153338;43.55;10.3
CHN;ALL;Linhai;153215;28.84;121.11
IDN;ALL;Cianjur;153211;-6.82;107.14
RUS;ALL;Miass;152915;55;60.09
CHN;ALL;Zhaodong;152880;46.07;125.98
ARG;ALL;Concordia;152860;-31.39;-58.03
ROU;ALL;Sibiu;152834;45.79;24.13
GTM;ALL;Chichicastenango;152826;14.93;-91.12
CHN;ALL;Boshan;152790;36.48;117.85
CHN;ALL;Yichun;152748;27.83;114.4
ITA;ALL;Foggia;152741;41.47;15.55
AGO;ALL;Malanje;152675;-9.54;16.34
CAN;NL;Saint John's;152635;47.58;-52.69
IDN;ALL;Weru;152572;-6.7;108.5
IND;ALL;Thānesar;152457;29.98;76.82
TZA;ALL;Moshi;152432;-3.34;37.34
USA;FL;Fort Lauderdale city;152397;26.135763;-80.141810
VNM;ALL;Cam Ranh;152348;11.9;109.22
IND;ALL;Ambāla;152164;30.38;76.77
CHN;ALL;Kaili;152160;26.58;107.92
USA;MA;Springfield city;152082;42.112411;-72.547455
PAK;ALL;Khānpur;152079;28.65;70.65
FRA;ALL;Nîmes;152040;43.84;4.35
MEX;MEX-CAMP;Carmen;152037;18.63;-91.83
SYR;ALL;al-Bāb;152013;36.37;37.53
CHN;ALL;Huangyan;151979;28.65;121.25
COD;ALL;Kindu;151965;-2.95;25.92
CHN;ALL;Honggang;151961;46.47;124.87
MMR;ALL;Dawei;151921;14.09;98.2
VNM;ALL;Hạ Long;151891;20.97;107.08
JOR;ALL;Wādī as-Sīr;151875;31.95;35.82
IND;ALL;Chitradurga;151862;14.23;76.39
EGY;ALL;Kafr el Sheikh;151781;31.11;30.93
IND;ALL;Morena;151750;26.51;77.99
PAK;ALL;Murīdke;151725;31.81;74.25
CHN;ALL;Meizhou;151710;24.33;116.12
DEU;ALL;Neuss;151659;51.2;6.69
IND;ALL;Vidisha;151584;23.53;77.8
USA;MO;Springfield city;151580;37.195098;-93.286213
DOM;ALL;Higüey;151549;18.62;-68.71
TUR;ALL;Aksaray;151536;38.37;34.03
BRA;ALL;Simões Filho;151534;-12.82;-38.4
BRA;ALL;Castanhal;151504;-1.29;-47.93
SOM;ALL;Burco;151451;9.52;45.54
MEX;MEX-MOR;Cuautla;151446;18.82;-98.96
ESP;ALL;Logroño;151401;42.47;-2.44
IDN;ALL;Waru;151356;-7.38;112.65
IDN;ALL;Bitung;151350;1.46;125.19
GBR;ENG;Peterborough;151238;52.59;-0.25
IDN;ALL;Cikampek;151165;-6.4;107.46
USA;CA;Santa Clarita city;151088;34.416561;-118.506443
USA;CA;Salinas city;151060;36.683859;-121.643128
MYS;ALL;Sungai Ara;151011;5.33;100.27
IDN;ALL;Pringsewu;150985;-5.36;105.08
CHN;ALL;Deyang;150937;31.13;104.4
CHN;ALL;Gaomi;150935;36.39;119.75
IND;ALL;Krishnanagar;150929;23.41;88.51
BRA;ALL;Cabo de Santo Agostinho;150797;-8.29;-35.03
USA;FL;Tallahassee city;150624;30.451800;-84.272770
MEX;MEX-VER;Minatitlán;150588;17.98;-94.52
BLR;ALL;Barisaw;150439;54.22;28.51
PER;ALL;Huánuco;150376;-9.92;-76.24
BGD;ALL;Tangāyal;150339;24.25;89.92
DZA;ALL;Sūq Ahrās;150206;36.29;7.95
IND;ALL;Ghatlodiya;150184;23.05;72.55
IND;ALL;Hazārībāg;150132;24.01;85.36
USA;IL;Rockford city;150115;42.269770;-89.069754
CHL;ALL;Quilpué;150109;-33.04;-71.5
RUS;ALL;Kovrov;150090;56.36;41.32
CHN;ALL;Chizhou;150029;30.65;117.48
DEU;ALL;Potsdam;149992;52.4;13.07
IND;ALL;Dilli Cantonment;149871;28.57;77.16
SYR;ALL;Idlib;149868;35.94;36.63
CHN;ALL;Sanbu;149788;22.46;112.76
GTM;ALL;Quetzaltenango;149737;14.84;-91.53
CHL;ALL;Copiapó;149710;-27.36;-70.34
ZAF;ALL;Orkney;149675;-26.98;26.64
IRN;ALL;Marāgheh;149589;37.42;46.22
IRQ;ALL;H̱utaylah;149584;34.38;41.04
UKR;ALL;Kerch;149581;45.36;36.48
AUT;ALL;Salzburg;149562;47.81;13.04
PAK;ALL;Gojra;149533;31.15;72.69
PHL;ALL;Tuguegarao;149526;17.62;121.72
USA;CA;Pomona city;149473;34.060760;-117.755886
PHL;ALL;Baliuag;149464;14.96;120.89
CHL;ALL;Osorno;149392;-40.57;-73.16
BRA;ALL;Ibirité;149376;-20.03;-44.07
BRA;ALL;Juazeiro;149273;-9.42;-40.5
USA;NJ;Paterson city;149222;40.915498;-74.162927
BRA;ALL;Itu;149200;-23.26;-47.3
ITA;ALL;Ravenna;149195;44.42;12.21
USA;KS;Overland Park city;149080;38.940071;-94.680697
CHN;ALL;Qujing;148828;25.48;103.78
NLD;ALL;Haarlem;148822;52.39;4.62
VEN;ALL;Cabudare;148758;10.03;-69.27
CHN;ALL;Jinchang;148753;38.47;102.17
VNM;ALL;Cẩm Phả;148731;21.02;107.29
IDN;ALL;Singaraja;148674;-8.12;115.09
MOZ;ALL;Lichinga;148652;-13.3;35.24
MAR;ALL;Taza;148637;34.22;-4.02
THA;ALL;Khlong Luang;148637;14.07;100.65
NLD;ALL;Haarlemmermeer;148622;52.3;4.7
ISR;ALL;Bene Beraq;148567;32.09;34.85
PER;ALL;Chincha Alta;148510;-13.42;-76.14
MDA;ALL;Tiraspol';148311;46.85;29.63
TJK;ALL;Khujand;148307;40.29;69.62
IND;ALL;Hābra;148259;22.84;88.62
PHL;ALL;Tanza;148232;14.69;120.93
USA;CA;Santa Rosa city;147595;38.448611;-122.704646
MOZ;ALL;Pemba;147489;-12.96;40.48
MEX;MEX-COAH;Piedras Negras;147481;28.71;-100.53
BRA;ALL;Parnaíba;147460;-2.91;-41.77
SAU;ALL;Sakākah;147401;29.97;40.2
USA;NY;Syracuse city;147306;43.046899;-76.144423
KOR;ALL;Kyŏngju;147297;35.85;129.22
IND;ALL;Bhīmavaram;147240;16.55;81.53
CHN;ALL;Hanzhong;147172;33.13;107.03
DZA;ALL;Baššar;147168;31.61;-2.23
RUS;ALL;Kolomna;147153;55.08;38.78
CHN;ALL;Yulin;147040;22.64;110.14
CHN;ALL;Sujiatun;147039;41.66;123.34
IND;ALL;Haldwāni;147020;29.23;79.52
NGA;ALL;Ikare;147016;7.53;5.76
FRA;ALL;Dijon;146965;47.33;5.03
MEX;MEX-SON;San Luis Río Colorado;146950;32.46;-114.78
BRA;ALL;Queimados;146945;-22.7;-43.58
UZB;ALL;Cizah;146910;40.11;67.84
USA;KS;Kansas City city;146866;39.106780;-94.676470
SAU;ALL;al-H̨awīyah;146865;21.44;40.5
PRI;ALL;Ponce;146807;18.02;-66.6
ZAF;ALL;Bhisho;146766;-32.87;27.39
EGY;ALL;El Arish;146758;31.13;33.8
MMR;ALL;Pyay;146651;18.82;95.21
NGA;ALL;Gusau;146649;12.17;6.66
BGD;ALL;Munshiganj;146642;23.49;90.38
IDN;ALL;Adiwerna;146604;-6.93;109.12
ESP;ALL;Huelva;146602;37.25;-6.94
CHN;ALL;Jieshi;146577;22.82;115.82
BGD;ALL;Sirājganj;146567;24.46;89.7
